id,name,brewery_type,address_1,city,state_province,postal_code,country,longitude,latitude,phone,website_url,state,processed_at
5128df48-79fc-4f0f-8b52-d06be54d0cec,(405) Brewing Co,micro,1716 Topeka St,Norman,Oklahoma,73069-8224,United States,-97.46818222,35.25738891,4058160490,http://www.405brewing.com,Oklahoma,2026-02-22 21:29:36
9c5a66c8-cc13-416f-a5d9-0a769c87d318,(512) Brewing Co,micro,407 Radam Ln Ste F200,Austin,Texas,78745-1197,United States,,,5129211545,http://www.512brewing.com,Texas,2026-02-22 21:29:36
34e8c68b-6146-453f-a4b9-1f6cd99a5ada,1 of Us Brewing Company,micro,8100 Washington Ave,Mount Pleasant,Wisconsin,53406-3920,United States,-87.883363502094,42.720108268996,2624847553,https://www.1ofusbrewing.com,Wisconsin,2026-02-22 21:29:36
1ecc330f-6275-42a5-b14e-00adbed62752,10 Torr Distilling and Brewing,micro,490 Mill St,Reno,Nevada,89502,United States,-119.7732015,39.5171702,7755307014,http://www.10torr.com,Nevada,2026-02-22 21:29:36
7531dbd8-afc9-4b5b-95bc-7ece7f2c0bf3,10-56 Brewing Company,micro,400 Brown Cir,Knox,Indiana,46534,United States,-86.627954,41.289715,6308165790,,Indiana,2026-02-22 21:29:36
4ffda196-dd59-44a5-9eeb-5f7fd4b58f5a,105 West Brewing Co,micro,1043 Park St,Castle Rock,Colorado,80109-1585,United States,-104.8667206,39.38269495,3033257321,http://www.105westbrewing.com,Colorado,2026-02-22 21:29:36
42aa37d5-8384-4ffe-8c81-7c982eff0384,10K Brewing,micro,2005 2nd Ave,Anoka,Minnesota,55303-2243,United States,-93.38952559,45.19812039,7633924753,http://10KBrew.com,Minnesota,2026-02-22 21:29:36
232e8f62-9afc-45f5-b4bc-582c26b5c43b,10th District Brewing Company,micro,491 Washington St,Abington,Massachusetts,02351-2419,United States,-70.94594149,42.10591754,7813071554,http://www.10thdistrictbrewing.com,Massachusetts,2026-02-22 21:29:36
08f78223-24f8-4b71-b381-ea19a5bd82df,11 Below Brewing Company,micro,6820 Bourgeois Rd,Houston,Texas,77066-3107,United States,-95.5186591,29.9515464,2814442337,http://www.11belowbrewing.com,Texas,2026-02-22 21:29:36
e5f3e72a-fee2-4813-82cf-f2e53b439ae6,12 Acres Brewing Company,micro,Unnamed Street,Killeshin,Laois,R93 X3X8,Ireland,-6.979343891,52.84930763,353599107299,https://12acresbrewing.ie/,Laois,2026-02-22 21:29:36
fb94830f-6196-4f59-9189-c9060b778085,12 West Brewing Company,micro,3000 E Ray Rd Bldg 6,Gilbert,Arizona,85296-7832,United States,,,6023395014,http://www.12westbrewing.com,Arizona,2026-02-22 21:29:36
0faa0fb2-fffa-416d-9eab-46f67477c8ef,12 West Brewing Company - Production Facility,micro,,Mesa,Arizona,85207,United States,-111.5860662,33.436188,,,Arizona,2026-02-22 21:29:36
d5cb896d-3e99-4e19-9693-5e06ce987e53,127 Brewing,micro,3090 Shirley Dr,Jackson,Michigan,49201-7010,United States,-84.43116792,42.28667212,5172581346,,Michigan,2026-02-22 21:29:36
50521ef7-f543-4c5d-98b1-0d0ee1a2be01,12welve Eyes Brewing,micro,141 E 4th St Ste LL2,Saint Paul,Minnesota,55101-1639,United States,,,6514938106,http://www.12welveEyes.com,Minnesota,2026-02-22 21:29:36
950180bd-29c9-46b3-ad0c-e6f09799ec7f,13 Below Brewery,micro,7391 Forbes Rd,Cincinnati,Ohio,45233-1013,United States,-84.70634815,39.12639764,5139750613,http://www.13belowbrewery.com,Ohio,2026-02-22 21:29:36
5c53b314-ebab-4e3e-89be-e4139d9318ae,1323 R & D,micro,1323 Capital Blvd 1323 R and D,Raleigh,North Carolina,27603-1117,United States,,,9199775654,http://www.1323rnd.com,North Carolina,2026-02-22 21:29:36
4788221a-a03b-458c-9084-4cadd69ade6d,14 Cannons Brewing Company,micro,31125 Via Colinas Ste 907,Westlake Village,California,91362-3974,United States,-118.802397,34.15334,8186996165,http://14cannons.com,California,2026-02-22 21:29:36
b7b68d22-5045-4501-b9bf-ec94946eaffc,14 Lakes Brewery,micro,,Crosslake,Minnesota,56442,United States,,,2186924129,,Minnesota,2026-02-22 21:29:36
6c53984f-fac1-4ea7-9c44-44e25897c71a,14th Star Brewing,micro,133 N Main St Ste 7,Saint Albans,Vermont,05478-1735,United States,,,8025285988,http://www.14thstarbrewing.com,Vermont,2026-02-22 21:29:36
284b44f8-6ccb-4cd6-8d06-f2ad882a47c3,16 Mile Brewing Co,micro,413 S Bedford St,Georgetown,Delaware,19947-1849,United States,-75.37816436,38.6788938,3022538816,http://www.16milebrewery.com,Delaware,2026-02-22 21:29:36
84bd3b3c-bd2d-4e07-bc31-b43a8c8ebf4c,1717 Brewing Co,micro,322 E Court Ave,Des Moines,Iowa,50309-2015,United States,-93.6120353,41.5872267,5152437868,http://1717brewing.com,Iowa,2026-02-22 21:29:36
84d621c4-81a5-44e6-aca7-1566c2e67cc0,1781 Brewing Company,micro,11109 Plank Rd,Spotsylvania,Virginia,22553-4258,United States,,,5408412598,,Virginia,2026-02-22 21:29:36
896f26a1-d80e-4790-9287-026a86c1799d,180 and Tapped,micro,2010 A State Ave,Coraopolis,Pennsylvania,15108,United States,-80.15020356,40.50984957,4127375273,http://www.180andtapped.com,Pennsylvania,2026-02-22 21:29:36
31935dfe-87ab-4b3c-b845-1347e78f3d98,1812 Brewery,micro,13006 Mason Road NE,Cumberland,Maryland,21502,United States,-78.7008528,39.7021475,3013382490,http://1812brewery.com/,Maryland,2026-02-22 21:29:36
46839a79-b7bf-4733-b91b-ce116d062a57,1817 Brewery,micro,100 B South Olive St,okolona,Mississippi,38860,United States,-88.750264,34.001703,6623055907,,Mississippi,2026-02-22 21:29:36
1a1b2165-73ed-40aa-b89b-56794d140f22,1840 Brewing Company,micro,342 E Ward St,Milwaukee,Wisconsin,53207-1348,United States,-87.90606942,43.00436242,4142364056,http://www.1840brewing.com,Wisconsin,2026-02-22 21:29:36
fe6b9893-b93e-43d5-a9f6-3e0c89a3f13c,1850 Brewing Company,micro,,Mariposa,California,95338,United States,-119.9036592,37.570148,,http://www.1850restaurant.com,California,2026-02-22 21:29:36
b51f3cdf-60ff-4ae1-94a7-76906c7d62eb,18th Street Brewery,micro,5725 Miller Ave,Gary,Indiana,46403-2871,United States,-87.26887786,41.59928343,,http://www.18thstreetbrewery.com,Indiana,2026-02-22 21:29:36
add7f978-942e-4d56-b209-c80837a51d69,18th Street Brewery,micro,5417 Oakley Ave,Hammond,Indiana,46320-1817,United States,-87.517422,41.61556796,,,Indiana,2026-02-22 21:29:36
dbde8235-2b55-4d8b-8b1c-438155abe104,1905 Brewing Company,micro,1301 S Chestnut St,Assumption,Illinois,62510-8504,United States,-89.0503635,39.5172564,2172549374,http://1905BrewingCompany.com,Illinois,2026-02-22 21:29:36
4f4b5b34-d572-4dff-a18f-47e507c073e6,1912 Brewing,micro,2045 N Forbes Blvd Ste 105,Tucson,Arizona,85745-1444,United States,-110.9927505,32.24673727,5202564851,http://www.1912brewing.com,Arizona,2026-02-22 21:29:36
4ccad9b9-f9cf-4d21-b6d5-ab005ee1532d,192 Brewing,micro,7324 NE 175th St,Kenmore,Washington,98028-2500,United States,-122.2415652,47.75670075,4254242337,http://www.192brewing.com,Washington,2026-02-22 21:29:36
4a09f017-db8f-42e1-a8ec-a0cd81c28761,1940's Brewing Company,micro,1337 Lincoln Ave Unit 1,Holbrook,New York,11741-2275,United States,,,6315334838,http://www.1940sbrewingcompany.com,New York,2026-02-22 21:29:36
4dcaeaa3-d7cc-4016-9392-5bde4e3a8f4d,1st Republic Brewing Co,micro,39 River Rd Ste 6,Essex Junction,Vermont,05452-3879,United States,,,8028575318,http://www.1strepublic-homebrew.com,Vermont,2026-02-22 21:29:36
9046adec-ed04-4c60-8043-4a02e9e2dabc,2 Basset Brewery,micro,202 E Main St,White Sulphur Springs,Montana,59645-9081,United States,-110.9004865,46.54807609,4065472337,http://www.2bassetbrewery.com,Montana,2026-02-22 21:29:36
8436b02b-9a06-474c-b5eb-8ff9aedf1f99,2 Dogz and A Guy Brewing,micro,228 Church St,Montrose,Pennsylvania,18801-1271,United States,-75.8800318,41.8336364,5704320069,http://2dogzandaguybrewing.com,Pennsylvania,2026-02-22 21:29:36
d30841d8-0152-469f-9a19-1b97a5f965a6,2 HALFS Brewing Distilling,micro,2 Stokes Avenue,Alexandria,NSW,2015,Australia,151.1979,-33.902839,61280680915,https://2halfs.com.au/,NSW,2026-02-22 21:29:36
6948c755-a504-42f9-88e8-d04d027731e5,2 Row Brewing,micro,6856 S 300 W,Midvale,Utah,84047-1083,United States,-111.9007652,40.5950202,8019878663,http://www.2rowbrewing.com,Utah,2026-02-22 21:29:36
fb2460bb-d6bb-4690-a700-f0b5628cc7dd,2 Silos Brewing Company,micro,9925 Discovery Blvd,Manassas,Virginia,20109,United States,,,7034202257,http://www.2silosbrewing.com,Virginia,2026-02-22 21:29:36
836cb05e-ee8f-4798-859e-fe0bedb0186a,2 Tones Brewing Co.,micro,4539 E Broad St,Whitehall,Ohio,43213-1308,United States,-82.9118174,40.0030689,,http://www.2tonesbrewingco.com,Ohio,2026-02-22 21:29:36
5cda93ce-6b16-4374-9d43-bb4383be0187,2 Witches Winery and Brewing Company,micro,209 Trade St,Danville,Virginia,24541-3545,United States,-79.42125553,36.58590349,4345492739,http://www.2witcheswinebrew.com,Virginia,2026-02-22 21:29:36
46a8ed58-5d1a-413e-871e-d2d29d6d43f0,217 Brew Works,micro,217 South St S,Wilson,North Carolina,27893-4911,United States,-77.9120318,35.7227625,2529916959,,North Carolina,2026-02-22 21:29:36
29c73154-9117-4f27-98e1-b5bb5f69c055,23rd Ave Brewery,micro,2313 S Jackson St,Seattle,Washington,98144-2340,United States,-122.301811,47.599163,2066792048,https://23rd-ave-brewery.square.site,Washington,2026-02-22 21:29:36
6751228c-5373-4a54-8d68-72df6849a437,26 Degree Brewing Company,micro,2600 E Atlantic Blvd,Pompano Beach,Florida,33062-4940,United States,-80.1224169,26.2316338,9545326964,,Florida,2026-02-22 21:29:36
e0444512-54a6-4a44-b5bb-0f9b88326454,27 South Brewing,micro,44 Milsom Street,Coorparoo,QLD,4151,Australia,153.0567537,-27.4869498,,http://www.27southbrewing.com.au/,QLD,2026-02-22 21:29:36
7d13ee75-e7e3-4623-862a-43a18dd6a1ae,2C Family Brewing Co.,micro,1215 1st St S,Nampa,Idaho,83651-3957,United States,-116.559282,43.578989,2084753981,,Idaho,2026-02-22 21:29:36
5fdcc498-f9df-4fa5-b35d-487a59f0fecc,2Kids Brewing Company,micro,8680 Miralani Dr Ste 123,San Diego,California,92126-6391,United States,-117.137429,32.896584,8584805437,http://www.2kidsBrewing.com,California,2026-02-22 21:29:36
3cf2698f-4193-4591-aab3-a8ef0fbedcab,2SP Brewing Company,micro,120 Concord Rd,Aston,Pennsylvania,19014-2909,United States,,,4844837860,http://www.2spbrewing.com,Pennsylvania,2026-02-22 21:29:36
065200ec-51cf-4612-b1b9-61f7db489c3c,3 Daughters Brewing,micro,222 22nd St S,Saint Petersburg,Florida,33712-1240,United States,-82.6629721,27.76899022,7274956002,http://www.3dbrewing.com,Florida,2026-02-22 21:29:36
60c00c0b-b797-4f6a-b442-3bfbaec156ca,3 Disciples Brewing,micro,,Sebastopol,California,95472-5937,United States,-122.8332502,38.3845125,7072287309,http://www.3disciplesbrewing.com/home,California,2026-02-22 21:29:36
a1887b5a-0c21-43cf-9547-527b7c11dcf4,3 Freaks Brewing Co,micro,7140 E County Line Rd,Highlands Ranch,Colorado,80126-3926,United States,-104.9426656,39.5659575,7202990994,http://www.3freaksbrewery.com,Colorado,2026-02-22 21:29:36
a74744eb-ca98-43c5-9199-09df39f8b400,3 Iron Brewing Company,micro,898 Via Lata Ste A,Colton,California,92324-3920,United States,-117.3066993,34.05616889,9095334892,http://www.3ironbrewingco.com,California,2026-02-22 21:29:36
ed387340-ea78-4f65-9de0-15e2da50371e,3 Nations Brewing,micro,2405 Squire Pl Ste 200,Farmers Branch,Texas,75234-4714,United States,-96.89883128,32.93044336,4696607184,http://www.threenationsbrewing.com,Texas,2026-02-22 21:29:36
50f26a2b-242d-40af-b78b-cf975ce37761,3 Ravens,micro,260 Dundas Street,Thornbury,VIC,3071,Australia,145.026872,-37.755894,61424707592,https://3ravens.com.au/index,VIC,2026-02-22 21:29:36
a8fda9a9-026b-4b15-86b9-62b4ccb126c1,3 Sheeps Brewing Co,micro,1837 North Ave,Sheboygan,Wisconsin,53083-4620,United States,-87.73006524,43.77384561,9209469715,http://www.3sheepsbrewing.com,Wisconsin,2026-02-22 21:29:36
5595bb24-e2b8-4a6e-9f0b-451fac8dd903,3 Sheets Brewery,micro,136 W 1st Ave,Albany,Oregon,97321,United States,,,5416190183,http://www.3sheetsbrewery.com,Oregon,2026-02-22 21:29:36
cb56e27e-d113-4f74-925a-69305a56d082,3 Trails Brewing Co,micro,111 N Main St,Independence,Missouri,64050,United States,-94.41265,39.122385,8168866256,http://www.3trailsbrewing.com,Missouri,2026-02-22 21:29:36
a964a343-e4f1-40d8-9353-09ef9b74f513,34 Degree North Experiment Station,micro,4802 Main St,Shallotte,North Carolina,28470,United States,-78.38636517,33.97270364,,,North Carolina,2026-02-22 21:29:36
63969ec8-b557-4c71-b993-ad00c99ab70e,360 Degree Brewing Company,micro,Bluebell Business Estate,Sheffield Park,East Sussex,TN22 3HQ,England,-0.00086,50.993912,1825722375,https://www.360degreebrewing.com/,East Sussex,2026-02-22 21:29:36
55de8d28-4231-4497-8ff7-3031e7bb3be5,38 State Brewing,micro,8071 S Broadway Ste A,Littleton,Colorado,80122-2730,United States,,,7206383678,http://www.38statebrew.com,Colorado,2026-02-22 21:29:36
b84d47b5-43a1-4a05-9ee4-e795dfbf019c,3806 Brewing,micro,12 Enterprise Avenue,Berwick,VIC,3806,Australia,145.3416748,-38.0371856,61477581483,http://3806.beer/,VIC,2026-02-22 21:29:36
842d193f-7a1b-4960-86f8-7d6614884005,3cross Fermentation Cooperative,micro,4 Knowlton Ave,Worcester,Massachusetts,01603,United States,-71.83057593,42.24364875,5086158195,http://www.3cross.coop,Massachusetts,2026-02-22 21:29:36
694547f5-28fd-4363-bad6-03b6eaf0f1dd,3rd Degree Brewhouse,micro,1625 N Main St,Fuquay Varina,North Carolina,27526,United States,-78.794223,35.5914556,9192015457,http://www.facebook.com/3rddegreebrewhouse/,North Carolina,2026-02-22 21:29:36
370fdc3b-55a0-43f0-a54e-f617a7cec7b8,3rd Planet Brewing,micro,120 Partin Dr N,Niceville,Florida,32578-2053,United States,,,8505029952,http://www.facebook.com/3rdplanetbrewing/,Florida,2026-02-22 21:29:36
3c9354c5-4d21-40a8-8e53-8f2f9b5e043b,3rd Rock Brewing Company,micro,134 Industrial Park Dr,Trenton,North Carolina,28585-9593,United States,-77.36749285,35.06939877,2526319213,http://www.3rockbrew.com,North Carolina,2026-02-22 21:29:36
2eed7840-ec52-48b5-b22e-d9d76bd01929,3rd Turn Brewing,micro,10408 Watterson Trl,Louisville,Kentucky,40299-3702,United States,-85.56656078,38.19322725,,http://www.3rdturnbrewing.com,Kentucky,2026-02-22 21:29:36
781bda70-39b2-4f3f-9213-9d0f44c08991,3rd Wave Brewing Co,micro,501 N Bi State Blvd,Delmar,Delaware,19940-1106,United States,,,3029070423,http://www.3rdwavebrewingco.com,Delaware,2026-02-22 21:29:36
a00c1c11-dede-4d7f-a514-bd291b6db283,3TREE BREWERY,micro,3-19 Futabacho,Ibaraki,Osaka,567-0829,Japan,135.5780968,34.81744613,,https://3tree-brewery.jimdosite.com/,Osaka,2026-02-22 21:29:36
b72f2ce6-e062-404d-ac31-c1060db2d870,4 By 4 Brewing Company,micro,2811 E Galloway St Ste A,Springfield,Missouri,65804-4601,United States,-93.239889,37.147986,4178616400,http://www.4by4brewingcompany.com,Missouri,2026-02-22 21:29:36
dc652569-19d7-4f63-a999-3e8d5d6798c1,4 Noses Brewing Company,micro,8855 W 116th Cir Ste 3,Broomfield,Colorado,80021-2521,United States,,,7204602797,http://4nosesbrewing.com,Colorado,2026-02-22 21:29:36
9c3f919e-e6de-4e43-91cb-30f3e73ad591,406 Brewing Company,micro,"101 E Oak St,Â Ste D",Bozeman,Montana,59715-2967,United States,,,4065853745,http://www.406brewingcompany.com,Montana,2026-02-22 21:29:36
1d3084b5-c9bc-4380-9862-14e837b82bb9,45 Degree Brewhouse,micro,10421 E Sprague Ave,Spokane Valley,Washington,99206-3629,United States,-117.264473,47.657478,5092413281,http://45degreebrewhouse.com,Washington,2026-02-22 21:29:36
cd97aeab-a499-4c95-b20b-881bfe3ed6c8,49th State Brewing Co,micro,248.4 Parks Hwy 5 Mile,Healy,Alaska,99743,United States,-149.017877,63.864759,9076832739,https://www.49statebrewing.com/denali,Alaska,2026-02-22 21:29:36
aea0a6f9-557e-4907-be23-d80737a071e4,4J Brewing Company,micro,1348 Cedar Post Ln.,Houston,Texas,77055,United States,,,7136780776,https://4jbrewingcompany.com,Texas,2026-02-22 21:29:36
760e8395-f2a2-4161-9bf1-c72ed1aa6ae3,4th Tap Brewing Cooperative,micro,10615 Metric Blvd,Austin,Texas,78758-4520,United States,-97.7118913,30.3852024,5129089817,,Texas,2026-02-22 21:29:36
d8b4ad26-346b-40dd-8215-b0e89ace23e2,5 Alarm Brewing Co,micro,211 W Main St,Lake Mills,Iowa,50450,United States,-93.53398788,43.41926615,6415922739,,Iowa,2026-02-22 21:29:36
f927d8d6-3151-4073-9d20-410ca617853e,5 Rabbit Cerveceria Inc,micro,6398 W 74th St,Chicago,Illinois,60638-6129,United States,-87.6572069,41.7595502,3128959591,http://www.5rabbitbrewery.com,Illinois,2026-02-22 21:29:36
5c99b790-e00d-4ca6-86a5-37723f728690,5 Rights Brewing Co,micro,1514 3rd St,Marysville,Washington,98270,United States,-122.1762906,48.05156015,4253341026,http://www.5rightsbrewing.com,Washington,2026-02-22 21:29:36
83d47922-0a23-4b85-9c1c-d50b9135d64a,5 Stones Artisan Brewery,micro,11335 Farm To Market Road 1863,New Braunfels,Texas,78132,United States,-98.232345,29.711365,2103808215,,Texas,2026-02-22 21:29:36
fafc2e23-c3bf-46d3-87c0-00e92209269b,515 Brewing Co,micro,7700 University Ave,Clive,Iowa,50325-1271,United States,-93.7228408,41.599992,5156614615,http://www.515brewing.com,Iowa,2026-02-22 21:29:36
7e12d827-22dc-4d07-8715-8192c9680b23,5150 Brewing At The Brass Tap Rocklin,micro,5150 Commons Dr Ste 101,Rocklin,California,95677-3925,United States,-121.207331,38.8047402,9162462729,http://www.brasstaprocklin.com,California,2026-02-22 21:29:36
4a4baf4f-921c-46c0-9130-afcc4ce4f4d2,559 Local Brewing,micro,608 4th St,Clovis,California,93612-1183,United States,-119.7017487,36.82517171,5594731875,http://www.fresnobrewingcompany.com,California,2026-02-22 21:29:36
b0d5d69d-b439-44a6-ab3e-0cbd15658dc7,56 Brewing,micro,3055 Columbia Ave NE Ste 102,Minneapolis,Minnesota,55418-1860,United States,,,6124040056,http://www.56brewing.com,Minnesota,2026-02-22 21:29:36
f4a902c1-e5a6-43da-b3e4-a1ffc97d31a9,5770 Brewery,micro,303A W Main St,Teutopolis,Illinois,62467-1355,United States,-88.47806652,39.13142194,6183397841,http://www.5770brewery.com,Illinois,2026-02-22 21:29:36
cc8de428-9663-466c-bae8-73ad9edf0892,5th Line Brewing Co,micro,1015 E Lincoln Ave Ste 106,Yakima,Washington,98901-2534,United States,-120.4930458,46.61136701,5093676300,https://5thlinebrewing.com/,Washington,2026-02-22 21:29:36
ddf69cff-978e-47b6-b42e-75f102418bd0,603 Brewery,micro,12 Liberty Dr Unit 7,Londonderry,New Hampshire,03053-2286,United States,,,6036307745,http://www.603brewery.com,New Hampshire,2026-02-22 21:29:36
62871bbc-a963-4c09-9eff-eb36ade49fd7,608 Brewing Company,micro,83 Copeland Ave,La Crosse,Wisconsin,54603-3403,United States,-91.249927988566,43.825963955898,,http://www.608brewingcompany.com,Wisconsin,2026-02-22 21:29:36
f3e9ba4b-0246-44ac-9170-f095d19e8d64,612 Brew,micro,945 Broadway St NE,Minneapolis,Minnesota,55413-1471,United States,-93.2062058,45.000631,6129648939,http://www.612brew.com,Minnesota,2026-02-22 21:29:36
4e84a8d0-0d52-431e-a57a-da8977625bd2,7 Locks Brewing,micro,12227 Wilkins Ave,Rockville,Maryland,20852-1833,United States,-77.1103415,39.0561237,3018417123,http://www.7locksbrewing.com,Maryland,2026-02-22 21:29:36
84c84db6-1120-4106-a5d3-fd65b9d7303d,7 Mile Brewery,micro,3156 Route 9 South Ste 1-2,Rio Grande,New Jersey,08242,United States,,,6093657777,http://www.7milebrew.com,New Jersey,2026-02-22 21:29:36
745b65a8-d682-465c-a418-0188ce5878c2,7 Seas Brewing Co,micro,2101 Jefferson Ave,Tacoma,Washington,98402-1519,United States,-122.4390379,47.242614,2535727771,http://www.7seasbrewing.com,Washington,2026-02-22 21:29:36
a1199657-e4a9-496b-88c3-999f9e7e97e9,7 Sins Brewery,micro,10593 W Main Rd,Ripley,New York,14775-9746,United States,-79.7497349,42.24869073,7165812090,http://www.7sinsbrewery.com,New York,2026-02-22 21:29:36
c00f57cf-acdd-46da-9269-d182cb87a7e4,734 Brewing Company,micro,15 E Cross St,Ypsilanti,Michigan,48198,United States,-83.61103475,42.24586784,7346496453,,Michigan,2026-02-22 21:29:36
86fc7186-e3a3-42f2-9316-e33c8afa2b8a,7th Day Brewery,micro,9 Powells Road,Brookvale,NSW,2100,Australia,151.2727492,-33.7668139,61299394930,http://www.7thdaybrewery.com.au/,NSW,2026-02-22 21:29:36
c7b3260a-b441-4dc8-958f-34c045e26f22,7th Wave Brewing,micro,120 N Meadows Rd Ste 8,Medfield,Massachusetts,02052-1594,United States,,,6176453397,http://www.7thwavebrewing.com,Massachusetts,2026-02-22 21:29:36
c179a049-9988-4640-821d-ddf349cdd87e,7venth Sun Brewery,micro,1012 Broadway,Dunedin,Florida,34698-5762,United States,,,7277333013,http://www.7venthsun.com,Florida,2026-02-22 21:29:36
4679ff59-8ef6-4443-b6ec-f58232c6b7d7,7venth Sun Tampa,micro,6809 N Nebraska Ave,Tampa,Florida,33604-5660,United States,-82.4500207,27.9495902,8132315900,,Florida,2026-02-22 21:29:36
eef94d73-65e8-4d94-b1de-0d4b45efe090,8-Bit Aleworks,micro,1050 N Fairway Dr Bldg F Ste 10,Avondale,Arizona,85323-5206,United States,,,6239251650,http://www.8-bitaleworks.com,Arizona,2026-02-22 21:29:36
745272b9-5d04-4468-b1f7-e76a75c22de9,81 Artisan,micro,Chilgrove Road,Chichester,West Sussex,PO18 9HP,England,-0.81111,50.89212,7990035736,https://81artisan.com/,West Sussex,2026-02-22 21:29:36
783c5daa-ea5c-4462-836e-c2846ad3ff4e,81Bay Brewing Company,micro,4465 W Gandy Blvd Ste 600,Tampa,Florida,33611-3379,United States,,,8133722739,http://81baybrewco.com,Florida,2026-02-22 21:29:36
3055793c-9330-4fe1-958b-fef6d2a0e057,8one8 Brewing Company,micro,8951 de Soto Ave,Canoga Park,California,91304-5901,United States,-118.5885323,34.2218019,8188352286,http://www.818brewing.com,California,2026-02-22 21:29:36
c2bc693f-906a-46a0-a5f9-82eab2d2845b,8th Wonder Brewery,micro,2202 Dallas St,Houston,Texas,77003-3519,United States,-95.3559402,29.7487783,7133970072,http://www.8thwonderbrew.com,Texas,2026-02-22 21:29:36
a0a230f6-17b2-4460-8eca-61e57be53ed5,9 White Deer Brewery,micro,Ballymakeera,Macroom,Cork,P12 E277,Ireland,-9.146507143,51.936249,35302627110,http://www.9whitedeer.ie/,Cork,2026-02-22 21:29:36
2b067eab-e0b0-46b6-aaea-e40a62cf632f,903 Brewers,micro,1718 S Elm St,Sherman,Texas,75090-8725,United States,-96.60698055,33.61788732,2142438090,http://www.903brewers.com,Texas,2026-02-22 21:29:36
de6341a8-881b-4d9f-9335-5e9203e8a2c3,927 Beer Company,micro,821 Cornwall St,Cambria,California,93428-2434,United States,-121.0985408,35.5666725,8052035265,http://www.cambriabeerco.com,California,2026-02-22 21:29:36
de63f5c7-c340-4095-a302-f35ab8ac7179,93 Octane Brewery,micro,1825 Lincoln Highway,Saint Charles,Illinois,60174-4591,United States,-88.333625900834,41.898851100486,6305490332,http://www.93octanebrewery.com,Illinois,2026-02-22 21:29:36
9aeccd09-8884-4f0e-93f4-c44dacd246aa,A Homestead Brew,micro,26685 486th Ave,Valley Springs,South Dakota,57068-7309,United States,-96.49421923,43.51733014,6055535015,http://www.ahomesteadbrew.com,South Dakota,2026-02-22 21:29:36
5b627789-ff7e-4890-a7cf-24572bf547a2,Aardwolf Brewing Company,micro,1461 Hendricks Ave,Jacksonville,Florida,32207-8622,United States,-81.6545197,30.3108962,9043010755,http://www.aardwolfbrewing.com,Florida,2026-02-22 21:29:36
7918a6dd-08d0-4157-a841-01b20a9a7a4c,Abandon Brewing,micro,2994 Merritt Hill Rd,Penn Yan,New York,14527-8938,United States,,,5852093276,http://www.abandonbrewing.com,New York,2026-02-22 21:29:36
5a7b05f9-bf7b-49a2-a1de-0c1fe01b9374,Abandoned Building Brewery,micro,142 Pleasant St Unit 103A,Easthampton,Massachusetts,01027-2805,United States,,,4132827062,http://www.abandonedbuildingbrewery.com,Massachusetts,2026-02-22 21:29:36
9c5acc37-15fa-4838-91ee-47bf27a94777,"Abbey Brewing Company, LLC",micro,215 W. Alicante Rd,Santa Fe,New Mexico,87505,United States,-105.9465207,35.66555826,5056706802,http://www.abbeybrewing.biz,New Mexico,2026-02-22 21:29:36
b161916f-3f69-4f16-8059-eef9eee6877c,Abide Brewing Company,micro,110 Werz Industrial Blvd Ste 130,Newnan,Georgia,30263-5802,United States,-84.76356641,33.40257035,6789726747,http://www.abidebrewing.com,Georgia,2026-02-22 21:29:36
f8ab9530-289b-4684-89f1-474e89f4c5ae,Abjuration Brewing,micro,644 Broadway Ave,Mc Kees Rocks,Pennsylvania,15136-3008,United States,,,4127661668,http://www.abjurationbrewing.com,Pennsylvania,2026-02-22 21:29:36
c5f6426e-f894-4bfc-9ffb-43bc0baa0881,Able Baker Brewing,micro,1051 Mary Crest Rd #K,Henderson,Nevada,89104,United States,,,7025817742,http://www.ablebakerbrewing.com,Nevada,2026-02-22 21:29:36
e6780612-ff74-4289-8718-a229529e3ee1,Able Ebenezer Brewing Company,micro,31 Columbia Cir,Merrimack,New Hampshire,03054-4161,United States,-71.493705,42.851742,8442232253,http://www.ableebenezer.com,New Hampshire,2026-02-22 21:29:36
31678502-edf6-4eb0-bc10-4ede5ac279b6,Able Seedhouse and Brewery,micro,1121 Quincy St NE,Minneapolis,Minnesota,55413-2773,United States,-93.2510686,44.9993934,6124054642,http://www.ablebeer.com,Minnesota,2026-02-22 21:29:36
4db32843-26ff-4e73-9e24-1cb874109b24,Abnormal Beer Company,micro,16990 Via Tazon Ste 123,San Diego,California,92127-1649,United States,-117.08575,33.02391,8586182463,http://abnormalbeer.co,California,2026-02-22 21:29:36
9de7f346-3918-4e5c-b59e-a36bf61b0441,ABRU Craft Brewery,micro,15 Pasita Street,Bellville,Western Cape,7530,South Africa,18.6533,-33.8742,27726168377,https://abru.co.za/,Western Cape,2026-02-22 21:29:36
67525d30-1f18-4f03-a8ba-28a1153955eb,Absolution Brewing Co,micro,2878 Columbia St,Torrance,California,90503-3808,United States,-118.3378601,33.8431391,3104904860,http://www.absolutionbrewingcompany.com,California,2026-02-22 21:29:36
98b6e0ab-22ba-4864-80b0-a967ca61e536,Abyss Brewing Ltd,micro,Palehouse Common,Uckfield,East Sussex,TN22 5RB,England,0.14604,50.945743,1825840561,https://abyssbrewing.co.uk/,East Sussex,2026-02-22 21:29:36
7fa5779e-88df-42ab-895b-412b635498ae,Acopon Brewing Co,micro,211 W Mercer St,Dripping Springs,Texas,78620-5363,United States,-98.09006208,30.19269957,5128294723,http://www.acoponbrewing.com,Texas,2026-02-22 21:29:36
1a6206ad-e34b-421d-92d9-ba409cfedf82,Acorn Brewing,micro,2105 Meridian Ave E,Edgewood,Washington,98371,United States,-122.2934912,47.23859752,2535178899,https://www.acornbeer.com/,Washington,2026-02-22 21:29:36
ea7f7091-5e37-4762-bbcc-9a51702c99c1,"Actual Brewing Company, LLC",micro,655 N James Rd,Columbus,Ohio,43219-1837,United States,-82.9080986,39.9868523,6146363825,http://wwww.actualbeer.com,Ohio,2026-02-22 21:29:36
9ff5f718-dee7-4e69-b79c-6250de87e840,Adelbert's Brewery LLC,micro,2314 Rutland Dr Ste 100,Austin,Texas,78758-5273,United States,-97.7201589,30.3826286,5126621462,http://www.adelbertsbeer.com,Texas,2026-02-22 21:29:36
a180c4e0-77cc-4088-951c-62192abd99d4,Adirondack Pub and Brewery,micro,33 Canada St,Lake George,New York,12845-1603,United States,-73.71407763,43.41850655,5186680002,http://www.adkpub.com,New York,2026-02-22 21:29:36
1b7f0552-3b1a-4737-8cb4-eb8d7134d903,Adirondack Toboggan Company Microbrewery,micro,202A W Main St,Gouverneur,New York,13642-1334,United States,-75.47489238,44.33237311,3157716313,http://www.adktoboggan.net,New York,2026-02-22 21:29:36
2861f9b7-ebe4-49a5-a047-8aa0c142dbf3,Adobe Creek Brewing Company,micro,67 Galli Dr Ste E,Novato,California,94949-5718,United States,-122.5358157,38.07349982,4155064565,http://www.adobecreekbrewing.com,California,2026-02-22 21:29:36
a0111777-1fe6-4c8c-864e-c2518f5d5670,Adroit Theory Brewing Company,micro,404 Browning Ct Unit C,Purcellville,Virginia,20132-6171,United States,,,7034340553,http://www.adroit-theory.com,Virginia,2026-02-22 21:29:36
ef2e3826-f9b5-44d2-b901-331aa728a8cd,Adur Brewery,micro,Mouse Lane,Steyning,West Sussex,BN44 3DG,England,-0.340173,50.893624,1903867614,https://www.adurbrewery.co.uk/,West Sussex,2026-02-22 21:29:36
73e05bc6-30a9-42f5-917e-08def2fa33fa,Adventure Brewing Co,micro,33 Perchwood Dr Ste 101,Fredericksburg,Virginia,22405-4552,United States,,,5402428876,http://www.adventurebrewing.com,Virginia,2026-02-22 21:29:36
6f0bba92-cc4b-49df-ad02-827b08bd7272,Aero Plains Brewing,micro,117 N Handley St,Wichita,Kansas,67203-6114,United States,-97.35071131,37.68455054,3164482811,http://www.aeroplainsbrewing.com,Kansas,2026-02-22 21:29:36
59b8c8b8-6850-4b24-81f0-a16a9cd87773,Aeronaut Brewing Company,micro,14 Tyler St,Somerville,Massachusetts,02143-3224,United States,-71.1062676,42.3819723,6179874236,http://www.aeronautbrewing.com,Massachusetts,2026-02-22 21:29:36
2d26c5df-aa29-4c3b-9d56-5a83d5102f41,Aether Brewing,micro,340 Melton Road,Northgate,QLD,4013,Australia,153.0708268,-27.3932924,611800325013,http://www.aetherbrewing.com.au/,QLD,2026-02-22 21:29:36
333c81a4-9bcd-4699-b28a-2c49dd696596,Aftershock Brewing Co,micro,28822 Old Town Front St Ste 107,Temecula,California,92590-2893,United States,-117.1485306,33.49310382,9519722256,http://www.aftershockbrewingco.com,California,2026-02-22 21:29:36
c185b848-a69a-4d73-8a33-7b6f0db2e3fc,Afterthought Brewing Company,micro,844 N Ridge Ave,Lombard,Illinois,60148-1215,United States,-88.02234574,41.90549742,6303011615,http://afterthoughtbrewing.com,Illinois,2026-02-22 21:29:36
3d00e6db-0f45-43a5-add5-b9455edfdccb,Against the Grain Brewery,micro,401 E Main St,Louisville,Kentucky,40202-1110,United States,-85.7440377,38.2554568,5025150174,http://atgbrewery.com,Kentucky,2026-02-22 21:29:36
68855f86-415a-44e9-a0ab-53e6c8b10a3d,Against the Grain Production Facility,micro,1800 Northwestern Pkwy,Louisville,Kentucky,40203,United States,-85.7767241,38.2658758,,,Kentucky,2026-02-22 21:29:36
5ad38209-903f-4200-946e-ae435947252e,Agar’s Brewery,micro,Unit 12,Centurion,Gauteng,0157,South Africa,28.1256,-25.9189,27832948322,https://agarsbrewery.co.za/,Gauteng,2026-02-22 21:29:36
685be3dc-20b8-434d-880c-d7aabac5bfc0,Ahnapee Brewery,micro,N9153 Cherry Tree Rd Apt 4,Algoma,Wisconsin,54201-9501,United States,-87.436453944363,44.607613658885,9202178527,http://www.ahnapeebrewery.com,Wisconsin,2026-02-22 21:29:36
f4c592ed-4c20-4b87-bb35-64f894a6cc6b,Airline Brewing Company,micro,22 Mill Ln,Amherst,Maine,04428,United States,-68.3677435,44.8329462,2075842337,http://www.abcmaine.beer,Maine,2026-02-22 21:29:36
f767a00f-fbd9-4d31-abe6-902149c0158a,Akasha Brewing Company,micro,909 E Market St Ste 700,Louisville,Kentucky,40206-1688,United States,,,5027427770,http://www.akashabrewing.com,Kentucky,2026-02-22 21:29:36
645a43c4-74b2-47e5-a795-f2b0f678df52,Akasha Brewing Company,micro,10-12 Spencer Street,Five Dock,NSW,2046,Australia,151.1182256,-33.8697751,61297157156,http://www.akashabrewing.com.au/,NSW,2026-02-22 21:29:36
d4f4e76b-b971-4dcb-8a9b-d6c36a3e8c22,Akronym Brewing LLC,micro,58 E Market St,Akron,Ohio,44308,United States,-81.51645882,41.08512193,3306208274,http://www.akronymbrewing.com,Ohio,2026-02-22 21:29:36
39e91766-af3e-4074-9d49-26ca621e45dc,Al. Ringling Brewing Co,micro,623 Broadway St,Baraboo,Wisconsin,53913-2513,United States,-89.744831773235,43.471751392447,6084484013,http://www.alringlingbrewingco.com,Wisconsin,2026-02-22 21:29:36
b7db853a-e8aa-430f-84c8-d49b72184d01,Alameda Brewing Co,micro,4736 SE 24th Ave,Portland,Oregon,97202-4787,United States,-122.6412495,45.48882655,5034609025,,Oregon,2026-02-22 21:29:36
07ad4030-fb5b-4eb7-9b28-d7f5556b145d,Alameda Brewing Co,micro,4765 NE Fremont St,Portland,Oregon,97213-1724,United States,-122.6136209,45.54849565,5034609025,http://www.alamedabrewing.com,Oregon,2026-02-22 21:29:36
6fbd1118-ceea-4be9-a784-45dd623f16f0,Alameda Island Brewing Company,micro,1716 Park St,Alameda,California,94501-1416,United States,-122.2394506,37.76833631,5102178885,http://www.alamedaislandbrewingcompany.com,California,2026-02-22 21:29:36
edf1c0fb-cce0-44ec-8d98-dd4778e2d533,Alamo Beer Co,micro,415 Burnet St,San Antonio,Texas,78202-1909,United States,-98.4771638,29.42902321,2108725589,http://www.alamobeer.com,Texas,2026-02-22 21:29:36
4f79f427-8214-4048-8636-63cef96b33da,Alarmist Brewing Co,micro,4055 W Peterson Ave Ste REAR,Chicago,Illinois,60646-6072,United States,,,7739882536,http://alarmistbrewing.com,Illinois,2026-02-22 21:29:36
ec26cd9a-540f-4f23-b030-670115eed645,Alcatraz Brewing,micro,20 Ocean Vista Ln,Palm Coast,Florida,32137-2743,United States,-81.19287028,29.61781196,3866278909,http://www.alcatraz.beer,Florida,2026-02-22 21:29:36
8135f18c-0c31-4b4d-bb22-84eccf498e9c,Aldus Brewing Company,micro,555 Centennial Ave,Hanover,Pennsylvania,17331-3936,United States,-76.98030009,39.79422185,7176342407,http://www.aldusbrewing.com,Pennsylvania,2026-02-22 21:29:36
e13a5403-3cd7-4dbf-92f1-e48d0f26c750,Ale House Brewing Co,micro,,San Jose,California,95118-1605,United States,-121.8905833,37.3361905,4083907574,,California,2026-02-22 21:29:36
13f19f47-cac4-44df-b4f3-728e4dcde6c5,Ale Industries,micro,3096 E 10th St,Oakland,California,94601-2960,United States,-122.2281897,37.7761111,9254705280,http://www.aleindustries.com,California,2026-02-22 21:29:36
e9f93b6a-72c5-4e40-9511-705480434310,Ale Mary Brewing Co.,micro,8 Gladstone Street,Fyshwick,ACT,2609,Australia,149.173169,-35.32352,61411627321,https://www.alemary.beer/,ACT,2026-02-22 21:29:36
148e8fb4-4977-4ba8-8fa6-1133a56198d4,Ale Republic,micro,28 Arroyo Seco,Cedar Crest,New Mexico,87008,United States,,,5052812828,http://www.alerepublic.com,New Mexico,2026-02-22 21:29:36
ea06694a-32f8-4026-b22e-aeb880848b4d,Ale Spike Brewery,micro,1244 N Moore Rd Unit I-1,Camano Island,Washington,98282,United States,-122.4381311,48.25785496,3609392434,http://www.alespike.com,Washington,2026-02-22 21:29:36
d678c1a4-713e-483e-8c60-c891d5cf043e,Alefarm Brewing,micro,96 Riversdale Road,Hawthorn,VIC,3122,Australia,145.0346325,-37.8289324,61406260073,http://www.ramblers.beer/,VIC,2026-02-22 21:29:36
1170049c-c20d-43c8-9475-0a42599f144c,Aleman Brewing,micro,3304 N Knox Ave,Chicago,Illinois,60641-4434,United States,-87.74301213,41.94087994,8123404198,http://www.alemanchicago.com,Illinois,2026-02-22 21:29:36
40093c50-b89d-443f-9ac7-b24a000d8f48,Alesong Brewing and Blending,micro,1000 Conger St Ste C,Eugene,Oregon,97402-2950,United States,-123.2384193,43.85285684,5419723303,http://www.alesongbrewing.com,Oregon,2026-02-22 21:29:36
f15f6ebf-0d80-4e6b-ad38-fb0ca9f3d3ed,Alesong Brewing and Tasting Room,micro,1000 Conger Unit C,Eugene,Oregon,97402,United States,-123.2384193,43.85285684,5419723303,http://www.alesongbrewing.com,Oregon,2026-02-22 21:29:36
e4148f94-4ce9-4fd2-9b05-faabdcca2b09,Alewerks Brewing Company,micro,197 Ewell Rd,Williamsburg,Virginia,23188-2185,United States,,,7572203670,http://www.alewerks.com,Virginia,2026-02-22 21:29:36
5860a6e0-1bf6-4334-8797-e5668fc22db0,Alexandria Brewing Company,micro,7926 Alexandria Pike Ste 1,Alexandria,Kentucky,41001-1454,United States,,,8596946999,http://www.alexandriabrewingcompany.com,Kentucky,2026-02-22 21:29:36
9da0a260-5b85-4490-824a-a397446c17dc,Algarve Rock Brewery,micro,Unidade 2B,Faro,Faro,8005-412,Portugal,-7.9729562079031,37.065600871444,351289815218,https://algarverock.com/,Faro,2026-02-22 21:29:36
083b7953-133d-453f-ada0-2b3541d1931c,Alibi Ale Works,micro,204 E Enterprise St,Incline Village,Nevada,89451-9456,United States,-119.9537117,39.24819328,7752987001,http://www.alibialeworks.com,Nevada,2026-02-22 21:29:36
45a2116d-d9d2-4114-b15f-736d9557f00c,Alice Springs Brewing Co.,micro,39 Palm Circuit,Ross,NT,873,Australia,133.867253,-23.732893,61879044007,https://www.alicespringsbrewingco.com.au/?utm_source=google_business_profile&utm_medium=gbp_view_website&utm_campaign=gbp,NT,2026-02-22 21:29:36
68b447a3-c65c-459f-8d02-334757bc6f71,Align Brewing Co,micro,8680 Miralani Dr,San Diego,California,92126-6300,United States,-117.137429,32.896584,,http://www.facebook.com/alignbrewing,California,2026-02-22 21:29:36
e36f9132-3c0b-41d4-b074-b54286d6a9a8,All Inn Brewing Co.,micro,189 Elliott Road,Banyo,QLD,4014,Australia,153.0799698,-27.3668382,61478519414,http://www.allinnbrewingco.com/,QLD,2026-02-22 21:29:36
61853d49-62af-44bc-b0f7-bbc0faa89d30,All Saints Brewing Co,micro,1602 State Route 119,Greensburg,Pennsylvania,15601-7317,United States,,,7242891202,http://www.allsaintscraftbrewing.com,Pennsylvania,2026-02-22 21:29:36
82ea8f08-2026-43f8-b1a7-cc57ebe8c0bb,All-American Ale Works,micro,5120 E La Palma Ave Ste 103,Anaheim,California,92807-2082,United States,-117.8056915,33.85925032,9517412771,http://www.all-americanaleworks.com,California,2026-02-22 21:29:36
0924f3af-e548-446b-baf8-687ea51b02ae,Allegheny City Brewing,micro,507 Foreland St,Pittsburgh,Pennsylvania,15212-4910,United States,-80.00061073,40.45424933,4129043732,http://www.alleghenycitybrewing.com,Pennsylvania,2026-02-22 21:29:36
9b4f31d5-61b4-46ed-b501-6acc4d428666,Allegory Brewing,micro,777 NE 4th St,McMinnville,Oregon,97128-4502,United States,-123.1917806,45.21081917,9713731253,http://www.allegorybrewing.com,Oregon,2026-02-22 21:29:36
9c3b028c-2949-4216-ba66-fbb098734cde,Alliance Brewing Company,micro,1130 Sevier Ave,Knoxville,Tennessee,37920,United States,-83.9035469,35.9593516,8652475355,http://www.alliancebrewing.com,Tennessee,2026-02-22 21:29:36
10795316-cc0d-42d7-80c7-e237aae40a06,Alligator Brewing / Tall Paul's Brewhouse,micro,10 SE 2nd Ave,Gainesville,Florida,32601-6232,United States,-82.3222523,29.6502615,3525050990,,Florida,2026-02-22 21:29:36
1b259770-4334-44ad-be18-8097be571df6,Alloy Brewing Company,micro,2700 Coon Rapids Blvd NW,Coon Rapids,Minnesota,55433-3955,United States,-93.33543497,45.16953614,7634230939,http://www.alloybrewingcompany.com,Minnesota,2026-02-22 21:29:36
6e103afb-f4ad-4fea-bf67-b31d390c269d,Alluvial Brewing Company,micro,3715 W 190th St,Ames,Iowa,50014-9316,United States,-93.6370387,41.5831617,515337118,http://www.alluvialbrewing.com,Iowa,2026-02-22 21:29:36
085c97d4-5a01-4e28-a1c6-683bf773b062,Alma Mader Brewing,micro,2635 Southwest Blvd,Kansas City,Missouri,64108,United States,-94.599389,39.082495,8169452589,http://almamaderbrewing.com,Missouri,2026-02-22 21:29:36
9a6f84d7-194b-426d-999f-c1be9beb835d,Almanac Beer Company,micro,651B W Tower Ave,Alameda,California,94501-5047,United States,-122.3062832,37.78344977,4159326531,http://almanacbeer.com,California,2026-02-22 21:29:36
fc0ae4ac-07b5-4df2-a1d2-0785af183a35,Almost Famous Brewing Company,micro,17 Kripes Rd,East Granby,Connecticut,06026,United States,-72.4224674,41.9581654,8604139401,https://www.almostfamousbrewing.com/,Connecticut,2026-02-22 21:29:36
30ef2457-11c4-48ef-ae58-37109ceda4c7,Alosta Brewing Co,micro,692 Arrow Grand Cir,Covina,California,91722-2122,United States,-117.8781466,34.10365026,9094558707,http://www.alostabrewing.com,California,2026-02-22 21:29:36
dc9fb80b-fb92-47c2-8b13-9a6f6990f99e,Alpha Acid Brewing Co,micro,121 Industrial Way Ste 12,Belmont,California,94002-8208,United States,-122.2655717,37.52125155,6503944728,,California,2026-02-22 21:29:36
0edb8050-2911-4a04-a99a-7927e05cd018,Alpha Brewing Co.,micro,4310 Fyler Ave,Saint Louis,Missouri,63116,United States,-90.26236838,38.59861817,3146212337,http://www.alphabrewingcompany.com,Missouri,2026-02-22 21:29:36
9d64f11c-4f42-41c6-8ba7-768f7bf9ec13,Alpine Dog Brewing Co,micro,1505 N Ogden St,Denver,Colorado,80218-1405,United States,,,3038321245,http://www.alpinedogbrewery.com,Colorado,2026-02-22 21:29:36
728f9750-1c56-48be-9f96-b26d04215958,Alta Brewing Company,micro,1983 Julian Avenue,San Diego,California,92113-1125,United States,-117.1414712,32.7018758,6197957300,http://www.altabrewing.com,California,2026-02-22 21:29:36
ce487823-fb0a-4ad9-b3de-2f2ec4ce0631,Altamont Beer Works,micro,2402 Research Dr,Livermore,California,94550-3850,United States,-121.7210974,37.67839114,9254432337,http://www.altamontbeerworks.com,California,2026-02-22 21:29:36
c7009224-b9ce-44d0-b426-cd0a1e95d6f9,Alter Brewing + Kitchen,micro,12 S 1st St,Saint Charles,Illinois,60174-4591,United States,-88.313937317989,41.913143276343,3319015949,http://www.alterbrewing.com,Illinois,2026-02-22 21:29:36
0026ad13-246b-4091-b344-641934ef7cc3,Alter Brewing Company,micro,2300 Wisconsin Ave Ste 213,Downers Grove,Illinois,60515-2234,United States,,,6305419558,http://www.alterbrewing.com,Illinois,2026-02-22 21:29:36
6dcf0b1b-3933-4207-bf88-0a37ee98994a,Alternation Brewing Company,micro,1539 S Broadway,Denver,Colorado,80210-2607,United States,-104.9876117,39.68866374,3038025340,http://www.alternationbrewing.com,Colorado,2026-02-22 21:29:36
be64e523-9c15-4348-87e5-c6747b87abcb,Altmeyer and Lewis Brewing Company,micro,15898 N Hwy 123,San Marcos,Texas,78666-2418,United States,,,5126679537,http://www.altmeyerlewisbrewing.com,Texas,2026-02-22 21:29:36
68410dce-b145-4c0a-993f-08fc280cc9c8,Altstadt Brewery,micro,6120 E US Highway 290,Fredericksburg,Texas,78624-2176,United States,-98.8467263,30.2468574,8303042337,http://www.altstadtbeer.com,Texas,2026-02-22 21:29:36
7d0a71c4-cec0-431b-be2f-d125a9b9a44b,Alvarado Street Brewery,micro,1315 Dayton St Ste E,Salinas,California,93901-4400,United States,-121.6305329,36.64880356,,,California,2026-02-22 21:29:36
15ccd19e-e5bc-4216-939f-3d3348fb6d5c,Alvarium Beer Company,micro,365 John Downey Dr Ste B,New Britain,Connecticut,06051-2922,United States,,,8603572039,http://www.alvariumbeer.com,Connecticut,2026-02-22 21:29:36
a649a8d5-f59e-4007-bf75-e1609ef76467,Amador Brewing Company,micro,9659 Main St,Plymouth,California,95669-9570,United States,-120.849271,38.4808723,2095071900,http://www.amadorbrewing.com,California,2026-02-22 21:29:36
5306cc0f-35c0-4168-b49b-ea965437dc8e,Ambacht Brewing,micro,1060 NE 25th Ave Ste B,Hillsboro,Oregon,97124-4903,United States,-122.9564737,45.53275124,5038281400,http://www.ambacht.us,Oregon,2026-02-22 21:29:36
2b3bdfe8-47fd-4105-939e-57c9864e83b4,American Brewers Inc,micro,3408 Miller Rd,Kalamazoo,Michigan,49001-4111,United States,-85.5378194,42.26671998,2692171920,http://www.americanbrewers.us,Michigan,2026-02-22 21:29:36
f6350f89-c5df-4969-81b2-358b6e8e6ed0,American Solera,micro,1702 E 6th St,Tulsa,Oklahoma,74104,United States,-95.9667403,36.1518928,9189494318,http://www.americansolera.com,Oklahoma,2026-02-22 21:29:36
9bd199ef-1796-410e-abaa-1a4c9da3a1ca,Amery Ale Works,micro,588 115th St,Amery,Wisconsin,54001-7801,United States,-92.396797834543,45.293806062122,7152685226,http://www.ameryaleworks.com,Wisconsin,2026-02-22 21:29:36
f4e14ed9-3db6-4829-a08f-3f964717e489,Ammo Brewing,micro,235 N Market St,Petersburg,Virginia,23803-3207,United States,-77.407177,37.230765,8047221667,http://www.ammobrewing.com,Virginia,2026-02-22 21:29:36
f330bf2b-e342-4265-b41f-59d8ebf8bba7,Amorphic Beer,micro,3700 N Fratney St,Milwaukee,Wisconsin,53212-2360,United States,-87.900978500235,43.08422407407,4144856705,http://www.amorphicbeer.com,Wisconsin,2026-02-22 21:29:36
be80d6fe-27bc-4b12-a046-e7fc8fd947b6,Amorys Tomb Brewing Co,micro,76 Main St,Maynard,Massachusetts,01754-2516,United States,-71.45315644,42.43203845,9782430875,http://amorystomb.com,Massachusetts,2026-02-22 21:29:36
e6663203-a997-403b-b130-63dd975b00c6,Anaheim Brewery,micro,336 S Anaheim Blvd,Anaheim,California,92805-3830,United States,-117.9125249,33.8328226,7147801888,http://www.anaheimbrew.com,California,2026-02-22 21:29:36
ce8f55f6-ba10-4d74-94c3-e26cc131f473,Anchorage Brewing Co,micro,148 W 91st Ave,Anchorage,Alaska,99515-1901,United States,-149.8893581,61.1385311,9073605104,http://www.anchoragebrewingcompany.com,Alaska,2026-02-22 21:29:36
6c8aafd9-6e4a-4f1d-9dc0-a5e4cb710dce,Ancient City Brewing Co.,micro,3420 Agricultural Center Dr Ste 8,Saint Augustine,Florida,32092-0690,United States,,,9044299654,http://www.ancientcitybrewing.com,Florida,2026-02-22 21:29:36
032a363c-447b-495a-bfed-814201b877c0,Andean Brewing,micro,300 Corporate Dr Ste 2,Blauvelt,New York,10913-1162,United States,,,6464505852,,New York,2026-02-22 21:29:36
adb4eef2-cd2f-4664-9912-c58890711b30,Andrews Brewing Co,micro,353 High St,Lincolnville,Maine,04849-5846,United States,,,2077633305,,Maine,2026-02-22 21:29:36
bd12815b-aceb-485f-9070-e37b03bbcbb4,Andrews Brewing Co At Calaboose Cellars,micro,575 Aquone Rd,Andrews,North Carolina,28901-7004,United States,-83.81487799,35.19958164,8283212006,http://www.calaboosecellars.com,North Carolina,2026-02-22 21:29:36
be95afe2-de19-4b3b-8c83-a24ac9cd4aa7,Angel City Brewery,micro,216 S Alameda St,Los Angeles,California,90012-4201,United States,-118.237715,34.04627065,2136221261,http://www.angelcitybrewery.com,California,2026-02-22 21:29:36
d4e376b6-3aad-46ae-ae8d-471791ae03f8,"Angry Chair Brewing, LLC.",micro,6401 N Florida Ave,Tampa,Florida,33604-6007,United States,-82.459381,28.005127,8138921651,http://www.angrychairbrewing.com,Florida,2026-02-22 21:29:36
67616802-40bf-435e-8824-598bbf20e054,Angry Erik Brewing,micro,10 Millpond Dr Unit 8,Lafayette,New Jersey,07848-3825,United States,,,8624329003,http://www.angryerik.com,New Jersey,2026-02-22 21:29:36
8dc5e687-be97-44c3-ae27-9b0818d48471,Angry Fish Brewing Company,micro,106 Fabrister Ln Ste C,Lexington,South Carolina,29072,United States,,,8035707470,http://angryfishbewingco.com,South Carolina,2026-02-22 21:29:36
40ecc96b-6dea-4e6b-a8f0-55293970654b,Angry Hank's Microbrewery,micro,20 N 30th St,Billings,Montana,59101-2140,United States,-108.5076025,45.78022173,4062523370,,Montana,2026-02-22 21:29:36
5d0bfbaa-e738-4d5b-a68e-5cfea2116197,Angry Horse Brewing,micro,603 W Whittier Blvd,Montebello,California,90640-5235,United States,-118.1003743,34.0084152,3235300015,http://angryhorsebrewing.com,California,2026-02-22 21:29:36
4f22a5e8-e8e0-471b-8070-888584fc446a,Angry Inch Brewing,micro,20841 Holyoke Ave,Lakeville,Minnesota,55044-,United States,-93.2432718,44.6476022,,http://www.angryinchbrewing.com,Minnesota,2026-02-22 21:29:36
c9b30f6c-608f-4762-b041-c4c91e8aeba2,Angry James Brewing Co,micro,421 Adams Ave,Silverthorne,Colorado,80498,United States,-106.0764637,39.63306895,9704558800,http://www.angryjamesbrewing.com,Colorado,2026-02-22 21:29:36
f95b4c37-7d9c-4bcb-8958-31c352cd1cab,Anthem Brewing Co,micro,908 SW 4th St,Oklahoma City,Oklahoma,73109-1012,United States,-97.5279236,35.46099673,4056040446,http://www.anthembrewing.com,Oklahoma,2026-02-22 21:29:36
9379b79b-63c2-4ce3-9605-f499f7915f7e,Antietam Brewery,micro,140 Western Maryland Pkwy,Hagerstown,Maryland,21740-5197,United States,-77.7609769,39.6397845,3017915915,http://www.antietambrewery.com,Maryland,2026-02-22 21:29:36
1c215e2f-7a58-46ce-88cc-241bd3d39482,Antiques on High,micro,714 S High St,Columbus,Ohio,43206,United States,-82.99774,39.9476,6147252070,https://www.antiquesonhigh.com/,Ohio,2026-02-22 21:29:36
6d598adb-bca7-42d8-99b6-4f2074bc8aee,APEShip Brewing,micro,520 N Dewey St,North Platte,Nebraska,69101-3913,United States,-100.75354430575,41.181566260787,3085689433,https://apeshipbrewing.com,Nebraska,2026-02-22 21:29:36
e61dc891-91d8-4a0f-a55e-b5e34acc97fd,Apex Aleworks Brew And BBQ Supplies,micro,4360 S Noland Rd,Independence,Missouri,64055-4741,United States,-94.416872,39.041039,8163135039,http://www.apexaleworks.com,Missouri,2026-02-22 21:29:36
e15991e7-755b-465a-9d39-0f850305e900,Apex Brewery,micro,"405 State Route 17M Monroe, NY 10950",Monroe,New York,19050,United States,-74.1730176,41.3165152,8452023498,https://apexbrews.com,New York,2026-02-22 21:29:36
98f2d2a5-5f1d-494c-b920-c50d6761b62e,Apocalypse Ale Works,micro,1257 Burnbridge Rd,Forest,Virginia,24551-3803,United States,-79.28917899,37.36302124,4342588761,http://www.apocalypsebrewworks.com,Virginia,2026-02-22 21:29:36
b622e216-d777-41c0-a795-bb901d31a555,Apocalypse Brew Works,micro,1612 Mellwood Ave,Louisville,Kentucky,40206-1752,United States,-85.72031443,38.2566442,5025894843,http://www.apocalypsebrewworks.com,Kentucky,2026-02-22 21:29:36
5b127f6a-3364-4588-b5ad-f7953fc6ee54,Appalachian Mountain Brewery - Boone,micro,163 Boone Creek Dr,Boone,North Carolina,28607-7911,United States,-81.668461,36.2033414,8282631111,http://www.appalachianmountainbrewery.com,North Carolina,2026-02-22 21:29:36
d8528f09-f3d8-48f9-9719-db00b4e10b71,Appalachian Mountain Brewery - Portsmouth,micro,1 Redhook Way,Portsmouth,New Hampshire,03801-6853,United States,-70.8044602,43.087884,8282631111,,New Hampshire,2026-02-22 21:29:36
fc2ce5e0-8796-4749-9aba-8710cd557ccb,Aqueduct Brewing,micro,529 Grant St Ste 106,Akron,Ohio,44311-1184,United States,-81.51788487,41.0698532,3306066583,http://www.aqueductbrewing.shutterfly.com,Ohio,2026-02-22 21:29:36
90fa4058-a971-4fd5-8783-559c670cddde,Arbor Brewing Co. Microbrewery,micro,720 Norris St,Ypsilanti,Michigan,48198-2825,United States,-83.6099915,42.250158,7344802739,,Michigan,2026-02-22 21:29:36
30561ae5-f2b9-4690-a94c-12bd52df29bb,Arcadia Brewing Co,micro,701 E Michigan Ave,Kalamazoo,Michigan,49007-4946,United States,-85.5715368,42.2950789,2692760458,http://www.arcadiaales.com,Michigan,2026-02-22 21:29:36
43aa2e45-0b2a-473f-8696-7b9f63040279,Arcana Brewing Company,micro,5621 Palmer Way Ste C,Carlsbad,California,92010-7254,United States,-117.273876,33.14038605,,http://www.arcanabrewing.com,California,2026-02-22 21:29:36
76da304a-4094-4cae-929c-bae2ae18d24d,Arch Rock Brewing Co,micro,28779 Hunter Creek Loop,Gold Beach,Oregon,97444-9626,United States,-124.4155402,42.3898306,5412470555,http://www.archrockbrewingcompany.com,Oregon,2026-02-22 21:29:36
ce1af2d9-e7d4-4d13-99f6-212067335f9e,Arches Brewing,micro,3361 Dogwood Dr,Hapeville,Georgia,30354-1439,United States,,,6786532739,,Georgia,2026-02-22 21:29:36
d86d40e0-1a3f-4c34-9b07-002191bc0952,Archetype Brewing,micro,265 Haywood Rd,Asheville,North Carolina,28806-4545,United States,,,8285054177,http://www.archetypebrewing.com,North Carolina,2026-02-22 21:29:36
fc552937-9245-4091-94b2-645ed0599756,Arclight Brewing Company,micro,544 N Main St,Watervliet,Michigan,49098-9797,United States,-86.25939238,42.19104832,2693320718,http://www.arclightbrewing.com,Michigan,2026-02-22 21:29:36
596ac64f-9586-4b9c-8ca4-9e637be672ef,Arcpoint Brewing Co,micro,,Belchertown,Massachusetts,01007-9305,United States,,,5187964977,http://www.arcpointbrewco.com,Massachusetts,2026-02-22 21:29:36
14e4b777-090d-46f9-8cfa-795c1201a191,Ardent Craft Ales,micro,3200 W Leigh St,Richmond,Virginia,23230-4410,United States,-77.47201237,37.5684425,8043591605,http://www.ardentcraftales.com,Virginia,2026-02-22 21:29:36
7a5dc3de-6ec7-4407-94fa-3ea9a5b627aa,Argus Brewery,micro,11314 S Front Ave,Chicago,Illinois,60628-5007,United States,-87.61206845,41.68854885,7739414050,http://www.argusbrewery.com,Illinois,2026-02-22 21:29:36
9408064a-bc10-4e15-84d0-3ff698036d4f,Argyle Brewing Company,micro,1 Main St,Greenwich,New York,12834-1209,United States,-73.496758,43.08767125,5183387405,http://www.argylebrewing.com,New York,2026-02-22 21:29:36
264be80a-dc5e-40cf-93f9-cd4914656440,Arizona Craft Brewing,micro,"473 Elgin Road, Suite BH",Elgin,Arizona,85611,United States,,,520369342,,Arizona,2026-02-22 21:29:36
5acdc1a1-5631-4c03-960c-bd076237f124,Arkane Aleworks,micro,2480 E Bay Dr #23,Largo,Florida,33771-2467,United States,,,7272707117,http://www.arkanebeer.com,Florida,2026-02-22 21:29:36
5f887385-2c6a-4de6-8dec-68fb5c58029d,Arkose Brewery,micro,650 E Steel Loop,Palmer,Alaska,99645-6689,United States,-149.103408,61.582157,9077462337,http://www.arkosebrewery.com,Alaska,2026-02-22 21:29:36
4cc17a95-7020-43f2-bc23-b9d9ddd29a10,Arlington Club,micro,811 SW Salmon St,Portland,Oregon,97205-3094,United States,-122.6818596,45.51786855,5032234141,http://www.thearlingtonclub.com,Oregon,2026-02-22 21:29:36
7e286282-9365-48c2-8bd2-1193bac62449,Armadillo Ale Works,micro,221 S Bell Ave,Denton,Texas,76201-4259,United States,-97.12830051,33.21286666,9405804446,http://www.armadilloaleworks.com,Texas,2026-02-22 21:29:36
d0dc210e-6f0e-4194-8791-dd2fe153843b,Armistice Brewing Company,micro,845 Marina Bay Pkwy Suite 1,Richmond,California,94804-6420,United States,-122.348274,37.91966864,5102304966,http://www.armisticebrewing.com,California,2026-02-22 21:29:36
a19630e3-638c-4ab8-a305-36c4f1cb84f7,Armstrong Brewing Co,micro,415 Grand Ave Ste 103,South San Francisco,California,94080-3614,United States,-119.1925726,50.44703096,6509898447,http://www.armstrongbrewing.com,California,2026-02-22 21:29:36
03411879-9d3e-4e2b-82a5-d5d01935074f,Arrow Lodge Brewing,micro,720 E Arrow Hwy Ste C,Covina,California,91722-2103,United States,-117.8767215,34.105251,6264832667,https://www.arrowlodgebrew.com/,California,2026-02-22 21:29:36
647378c3-df63-4da2-a88d-808943dcd4f9,Arrowood Farms,micro,236 Lower Whitfield Rd,Accord,New York,12404-5809,United States,-74.24891742,41.80666144,8452530389,http://www.arrowoodfarms.com,New York,2026-02-22 21:29:36
05549159-6724-478d-a976-4925533a40f2,Art History Brewing,micro,649 W State St,Geneva,Illinois,60134,United States,-88.312704761043,41.889484227325,6303456274,https://arthistorybrewing.com,Illinois,2026-02-22 21:29:36
174e828f-10aa-43b9-ba31-3c3f45001288,Artifex Brewing Company,micro,919 Calle Amanecer Ste A,San Clemente,California,92673-6298,United States,-117.6058963,33.44918353,9494297805,http://www.artifexbrewing.com,California,2026-02-22 21:29:36
8fb6c630-7647-4a16-a55a-fde63c129636,Artisanal Brew Works,micro,41 Geyser Rd,Saratoga Springs,New York,12866-9038,United States,,,5185942337,http://www.artisanalbrewworks.com,New York,2026-02-22 21:29:36
ed6c7254-d6f6-40a1-a330-135a1e3a09ad,Arvon Brewing Co.,micro,3057 Broadway Ave SW,Grandville,Michigan,49418-1528,United States,-85.7720434,42.909272,6162240086,http://www.arvonbrewingco.com,Michigan,2026-02-22 21:29:36
41f5672a-79ff-4559-9231-db2ecdcb2385,Asbury Park Brewery,micro,810 Sewall Ave,Asbury Park,New Jersey,07712-6527,United States,-74.01229282,40.21956661,7324555571,http://www.asburyparkbrewery.com,New Jersey,2026-02-22 21:29:36
e337af00-da5a-4bcf-ab5d-d9d9252b8ae8,Asgard Brewing Company,micro,104 E 5th St,Columbia,Tennessee,38401-3351,United States,-87.03329688,35.6174542,6158282218,http://www.asgardbrewery.com,Tennessee,2026-02-22 21:29:36
64749ace-0bca-4548-83e4-c6465547c60f,Ashby Brewing Company,micro,109 Main St,Ashby,Minnesota,56309-4687,United States,-95.81621756,46.09300639,8886350291,http://www.abcbrewing.net,Minnesota,2026-02-22 21:29:36
051edb66-62ad-455e-a04a-d6a0e5fa4178,Asher Brewing Co,micro,4699 Nautilus Ct S Ste 104,Boulder,Colorado,80301-5306,United States,,,3035301381,http://asherbrewing.com,Colorado,2026-02-22 21:29:36
3638576a-b41f-4ffc-a039-9d2b27df4a47,Ashtown Brewing Co,micro,1145 11th Ave,Longview,Washington,98632,United States,-122.9330459,46.13507657,3602187519,http://www.ashtownbrewing.com,Washington,2026-02-22 21:29:36
be30d928-4a14-45eb-a944-89b01b544080,Aslan Brewing Company,micro,1330 N Forest St,Bellingham,Washington,98225-4702,United States,-122.4754509,48.74801531,3603934106,http://aslanbrewing.com,Washington,2026-02-22 21:29:36
9c9090eb-a361-47e7-b2e5-06fefe21eef7,Aslan Brewing Seattle,micro,401 N 36th St Ste 102,Seattle,Washington,98103-8630,United States,-122.354134,47.652201,3603934106,https://aslanbrewing.com/seattle,Washington,2026-02-22 21:29:36
59bdcaa8-a690-429d-8f85-539eb4e57120,Aslin Beer Company,micro,257 Sunset Park Dr.,Herndon,Virginia,20170,United States,,,7037875766,http://www.aslinbeer.com,Virginia,2026-02-22 21:29:36
793a6866-a01a-4af2-b14c-09e692b9668e,Aslin Beer Company,micro,1740 14th St NW,Washington,District of Columbia,20009-4309,United States,-77.032262686209,38.914111389586,2026292220,https://www.aslinbeer.com/dc,District of Columbia,2026-02-22 21:29:36
5b2501b2-d069-4e5f-8c6b-ef9f6ee408cd,Aspen Brewing Company,micro,404 Aspen Airport Business Ctr,Aspen,Colorado,81611-3530,United States,-106.8597747,39.22153402,9709202739,http://www.aspenbrewingcompany.com,Colorado,2026-02-22 21:29:36
eafb7a5f-83c9-427b-b894-8ea1d0751c31,Ass Clown Brewing Co,micro,10620 Bailey Rd Ste E,Cornelius,North Carolina,28031-9364,United States,,,9805050399,http://www.assclownbrewery.com,North Carolina,2026-02-22 21:29:36
215dc8f1-754b-4dac-a448-255375c5a8d9,Aston Abbey Brewing Co,micro,340 Turner Industrial Way,Aston,Pennsylvania,19014-3014,United States,,,6102452178,http://www.astonabbeybrewing.com,Pennsylvania,2026-02-22 21:29:36
686e0f81-196a-4e76-9b73-2e3957c7b871,Astoria Brewing Company,micro,1196 Marine Dr,Astoria,Oregon,97103-4112,United States,-123.831516,46.18980259,5037413040,,Oregon,2026-02-22 21:29:36
d916497e-0b1b-48aa-8add-10a62c0b3e90,Astral Brewing,micro,4816 N Shepherd Dr suite a,Houston,Texas,77018,United States,,,7135341067,https://www.astralbrewing.com,Texas,2026-02-22 21:29:36
7b552890-643d-4615-a73b-791cff62299b,Asylum Brewing,micro,2970 E. La Palma Ave. Suite D,Anaheim,California,92806,United States,-117.8612062,33.84988007,9494495191,http://Www.asylumbrewing.beer,California,2026-02-22 21:29:36
05f7ec4a-c1ed-4494-a2b0-5ef1ce6a8022,At Large Brewing,micro,2730 W Marine View Dr,Everett,Washington,98201-3421,United States,-122.2146867,47.9808918,4253240039,http://www.atlargebrewing.com,Washington,2026-02-22 21:29:36
ba385e5a-6c50-431a-a820-21d783b9e0b1,Atco Brewing LLC,micro,302 White Horse Pike,Atco,New Jersey,08004-2209,United States,-74.89973165,39.77167345,6097072628,http://Www.atcobrewingcompany.com,New Jersey,2026-02-22 21:29:36
4e0403f6-c040-4d4c-b9fe-1f5a115b0172,Atlantic Beach Brewing Company,micro,725 Atlantic Blvd Suite 3,Atlantic Beach,Florida,32233-3946,United States,,,9048948426,http://www.atlanticbeachbrewingcompany.com,Florida,2026-02-22 21:29:36
5f353918-3d93-49ba-93d1-098a0ecf318f,Atlantic Brewing Co,micro,15 Knox Rd,Bar Harbor,Maine,04609-7770,United States,,,2072882337,http://atlanticbrewing.com,Maine,2026-02-22 21:29:36
325d44c0-53fb-4991-a694-659ac9f89fa9,Atom Brewing Company,micro,654 Moffat St,Erie,Colorado,80516,United States,-105.0542327,40.0488359,8634120917,http://www.atombrewingcompany.com,Colorado,2026-02-22 21:29:36
be18dd78-b1af-453c-8b8d-176c7af57e14,Atomic Clock Brewing Company,micro,501 Washington St,Durham,North Carolina,27701,United States,-78.9041106,36.0024998,9192371253,https://www.instagram.com/atomicclockbrewing/,North Carolina,2026-02-22 21:29:36
26567ffb-52fb-40b2-a31f-08f4ea3699b9,Atrevida Beer Company,micro,204 Mount View Ln Unit 3,Colorado Springs,Colorado,80908,United States,,,7192664200,http://www.atrevidabeerco.com,Colorado,2026-02-22 21:29:36
724a6296-cdac-4d35-92fd-cc44960010ff,Attaboy Beer,micro,400 Sagner Ave Ste 400,Frederick,Maryland,21701-6083,United States,-77.4024446,39.4121161,3013388229,http://www.attaboybeer.com/,Maryland,2026-02-22 21:29:36
65706566-c0f6-4995-ae18-0b07feea8396,Atypical Brewery & Barrelworks,micro,510 Central Ave E,Minot,North Dakota,58701-4056,United States,-101.2854035,48.23634956,7018330567,https://www.facebook.com/AtypicalBrew,North Dakota,2026-02-22 21:29:36
2728266c-bb3e-4e98-81b8-52489bc019ae,Audacious Aleworks,micro,110 E Fairfax St,Falls Church,Virginia,22046,United States,-77.17234359,38.88076482,,,Virginia,2026-02-22 21:29:36
506f8ec3-7cac-42c1-b7fd-9fe1a5865b2c,Aurochs Brewing Company,micro,8321 Ohio River Blvd,Pittsburgh,Pennsylvania,15202-1451,United States,-80.0221567,40.4488158,7242608737,,Pennsylvania,2026-02-22 21:29:36
74f46cc4-156c-4986-b653-b5240678ff54,Aurora Ale & Lager,micro,1891 State Route 90 N,King Ferry,New York,13081-9719,United States,,,,http://www.brewaurora.com,New York,2026-02-22 21:29:36
16ead71f-bbd5-4b34-b434-a3bc7849349f,Ausable Brewing Co,micro,765 Mace Chasm Rd,Keeseville,New York,12944-2425,United States,,,3152443295,http://ausablebrewing.tumblr.com,New York,2026-02-22 21:29:36
840d509e-f231-4722-ab4c-bf2ef7996196,Austin Street Brewery,micro,1 Industrial Way Ste 8,Portland,Maine,04103-1072,United States,,,2072001994,http://www.austinstreetbrewery.com,Maine,2026-02-22 21:29:36
fe0ec060-d68b-480d-9a1b-4a3bf7728839,Australian Beer Company,micro,1471 Wakley Road,Yenda,NSW,2681,Australia,146.2187469,-34.2467608,,https://www.australianbeerco.com.au/,NSW,2026-02-22 21:29:36
d07100f1-ab4b-413e-bc07-045ee4d61fe6,Avant Garde Aleworks,micro,920 Dunraven St,Estes Park,Colorado,80517,United States,-105.5085669,40.3728533,9705912700,https://avantgardealeworks.com,Colorado,2026-02-22 21:29:36
adf6d133-d860-4167-a23a-7db89b1777ff,Aviators Craft Brewing Company,micro,44 Zand Street,Hartbeespoort,North West,0216,South Africa,27.8189,-25.7511,27628011998,https://www.aviatorsbrewing.co.za/,North West,2026-02-22 21:29:36
bb02e7c9-bf6e-47dd-a0dc-a0e8eb1b9ad3,Avondale Brewing Co,micro,201 41st St S,Birmingham,Alabama,35222-1932,United States,-86.774322,33.524521,2057775456,http://www.avondalebrewing.com,Alabama,2026-02-22 21:29:36
f42d1652-6001-490f-ad55-ed573c47c38d,Axle Brewing Company,micro,567 Livernois St,Ferndale,Michigan,48220-2303,United States,-83.1428144,42.4508021,2486137002,http://www.axlebrewing.com,Michigan,2026-02-22 21:29:36
796874cf-6c73-4946-9459-e4cc044c8f39,Aztec Brewing Company,micro,2330 La Mirada Dr Ste 300,Vista,California,92081-7871,United States,-117.2297606,33.14984395,7605987720,http://www.aztecbrewery.com,California,2026-02-22 21:29:36
483efb3e-05aa-43b5-a283-40414b6b47dc,B and J's Handcrafted Texas Ales,micro,6335 S Padre Island Dr,Corpus Christi,Texas,78412-4013,United States,-97.2962784,27.6749936,3619926671,http://pizzaandbrew@aol.com,Texas,2026-02-22 21:29:36
e5cae8be-4cfa-40da-bf78-ffd3ad7cba35,B Chord Brewing Company,micro,34266 Williams Gap Rd,Round Hill,Virginia,20141-2100,United States,,,7036234542,http://www.bchordbrewing.com,Virginia,2026-02-22 21:29:36
8f4aa88c-e9cb-4932-9245-a2230ec59b63,B-52 Brewing,micro,12470 Milroy Ln,Conroe,Texas,77304-5160,United States,,,9364474677,http://www.b52brewing.com,Texas,2026-02-22 21:29:36
80263b86-dfa6-46dd-86cd-3440a13d5015,B-CS  Zoigl Brewery,micro,Â 211-C W William Joel Bryan Pkwy,Bryan,Texas,77803-3225,United States,,,2819353018,http://www.bcs-zoigl.com,Texas,2026-02-22 21:29:36
6918f40b-ab41-4fd8-bea0-ae8a5ce5664a,B.C. Brewery,micro,10950 Gilroy Rd Ste F,Hunt Valley,Maryland,21031-1327,United States,-76.6623019,39.4827911,4433913847,http://www.bcbrewerymd.com,Maryland,2026-02-22 21:29:36
c916c0c3-be83-4d5a-b2de-c58fc9faa206,Baa Baa Brewhouse,micro,539 FM 359 Rd S,Brookshire,Texas,77423-8013,United States,,,2819341847,http://www.baabaabrewhouse.com,Texas,2026-02-22 21:29:36
418c8bd5-997f-47f5-8147-a8a243517634,Bacchus Brewing,micro,15 Ellis Dr,Dryden,New York,13053-9630,United States,-76.29904171,42.49966971,6078448474,http://www.bacchusbrewing.com,New York,2026-02-22 21:29:36
d6f0a382-0e7e-4455-a81a-5bc1b9f2b22c,Bacchus Brewing Co,micro,2 Christine Place,Capalaba,QLD,4157,Australia,153.2047977,-27.5311667,61738232828,http://www.bacchusbrewing.com.au/,QLD,2026-02-22 21:29:36
89028aa2-3ecf-446b-89c0-5ef641e1bd50,Back Alley Brewing Co,micro,211 S Main St,Goshen,Indiana,46526-3722,United States,-85.83457862,41.58461971,5743704049,,Indiana,2026-02-22 21:29:36
2c260790-18be-4c9d-88da-4334c5cf151e,Back Bay Brewing Company,micro,614 Norfolk Ave,Virginia Beach,Virginia,23451-4419,United States,-75.97974414,36.83778371,7575317750,http://www.backbaybrewingco.com,Virginia,2026-02-22 21:29:36
cb595c72-e65b-444e-83a6-9d07d731e2b6,Back Channel Brewing,micro,4787 Shoreline Dr,Spring Park,Minnesota,55384-9713,United States,-93.64430718,44.93673794,9528559315,https://www.backchannelbrewing.com,Minnesota,2026-02-22 21:29:36
fc54b886-6305-4dc2-8511-a8b9049297e6,Back East Brewing,micro,1296 Blue Hills Ave Ste A,Bloomfield,Connecticut,06002-5312,United States,,,8602421793,https://www.backeastbrewing.com,Connecticut,2026-02-22 21:29:36
a6b00494-538a-4c1c-b670-a97d62ef5f60,Back Forty Beer Company - Birmingham,micro,3201 1st Ave N,Birmingham,Alabama,35222-1257,United States,-86.78845899815,33.522254920617,2054078025,https://www.backfortybeer.com/birmingham-back-forty-beer-company,Alabama,2026-02-22 21:29:36
3564fec6-6f87-45cd-88a7-94063757ce94,Back Forty Beer Company - Gadsden,micro,200 N 6th St,Gadsden,Alabama,35901-3361,United States,-86.005006,34.016888,2564674912,https://www.backfortybeer.com/gadsden-al-back-forty-beer-company,Alabama,2026-02-22 21:29:36
d53226dc-b8b1-494c-85f5-1c97ba255947,Back Pedal Brewing Company,micro,1425 NW Flanders St,Portland,Oregon,97209-2620,United States,-122.6856562,45.52597595,9714005950,http://backpedalbrewing.com,Oregon,2026-02-22 21:29:36
38c59264-ac19-4b4a-bada-cab729f71d57,Back Pew Brewing,micro,26452 Sorters Rd,Porter,Texas,77365-4752,United States,,,2816087526,http://www.backpewbrewing.com,Texas,2026-02-22 21:29:36
df9da06e-0ead-498f-ae26-3c5f783292c9,Back Road Brewery,micro,308 Perry St,La Porte,Indiana,46350-3216,United States,-86.72649137,41.6118882,2193627623,http://www.backroadbrewery.com,Indiana,2026-02-22 21:29:36
dde5cb42-9ee5-44bf-ae05-b51d8e0986e1,Back Street Brewery & Tasting Room,micro,1884 S Santa Cruz St,Anaheim,California,92805-6726,United States,-117.8960894,33.79983678,6572364050,http://www.backstreetbrew.com,California,2026-02-22 21:29:36
e932c001-d68a-4dc8-8eef-b4311b9399ad,Back Unturned Brewing Co.,micro,516 Brooklyn Ave,San Antonio,Texas,78215,United States,-98.4867139,29.4330983,210250022,http://www.backunturned.com/,Texas,2026-02-22 21:29:36
b48ce764-abf5-41cb-b9c5-93cf4fdc6b57,Backacre Beermakers,micro,,Weston,Vermont,05161,United States,,,,http://www.backacrebeermakers.com,Vermont,2026-02-22 21:29:36
b83daf92-6347-44b0-91df-8fec02c2a22c,Backcountry Brewing,micro,3250 Mecca Dr,Plover,Wisconsin,54467,United States,-89.5413643,44.3304949,7155729400,https://www.backcountrybrewingco.com,Wisconsin,2026-02-22 21:29:36
d4c25fef-5c3e-423e-831b-599cc328424c,Backpocket Brewing Co,micro,903 Quarry Rd,Coralville,Iowa,52241-2208,United States,-91.55981337,41.68139484,3194493700,http://www.backpocketbrewing.com,Iowa,2026-02-22 21:29:36
a2cdb369-d869-4f9a-9d80-7a5d2becd096,BackRoad Brewery,micro,90 School St,Carlisle,Iowa,50047,United States,-93.48531767,41.498501,5152102096,http://www.backroadbeer.com,Iowa,2026-02-22 21:29:36
270cf75d-5742-44bb-b795-6300d8429cc1,Backspace Brewing,micro,200 Walnut St,Yankton,South Dakota,57078-4343,United States,-97.393642,42.86878841,4026508158,http://www.backspacebeer.com,South Dakota,2026-02-22 21:29:36
ecc118fd-aee9-4e81-bcda-8ab049b2f6f3,Backstep Brewing Company,micro,125 N Green St,Crawfordsville,Indiana,47933-1708,United States,-86.89998607,40.04207712,7652302337,http://www.backstepbrewingcompany.com,Indiana,2026-02-22 21:29:36
08d2efda-af3e-4611-b8c6-d5c46af4c7a6,Backswing Brewing Co.,micro,500 W South St Ste 8,Lincoln,Nebraska,68522-1744,United States,-96.7274091,40.7922193,4024135576,http://www.backswingbrewing.com,Nebraska,2026-02-22 21:29:36
55582f56-7b20-499a-875a-8457e8715a1c,Backward Flag Brewing,micro,699 Challenger Way Ste D5,Forked River,New Jersey,08731-5917,United States,,,,http://www.backwardflagbrewing.com,New Jersey,2026-02-22 21:29:36
707a470e-266d-4ca9-bb9f-031e8cf28de6,Backwoods Brewing Company - Production Only,micro,1162 B Wind River Hwy,Carson,Washington,98610,United States,-121.8203754,45.72872253,5094273412,http://www.backwoodsbrewingcompany.com,Washington,2026-02-22 21:29:36
f5d7bfda-bce0-46f5-8626-74e14371a85b,Backwoods in the Gorge,micro,1162 Wind River Hwy,Carson,Washington,98610,United States,-121.8203754,45.72872253,5094273412,http://www.backwoodsbrewingcompany.com,Washington,2026-02-22 21:29:36
1d5ac885-33a0-4bed-971b-dfb24772eb0b,Backyard Barn Winery and Microbrewery,micro,1945 E County Road 462,Wildwood,Florida,34785-8594,United States,,,3524187887,http://www.backyardbardwinery.com,Florida,2026-02-22 21:29:36
c7215e3b-5320-4ef4-a4ad-73ab42a39603,Bad Beat Brewing,micro,7380 Eastgate Rd Ste 110,Henderson,Nevada,89011-4012,United States,,,7024634199,http://www.badbeatbrewing.com,Nevada,2026-02-22 21:29:36
cec378ba-bb45-4988-a654-30e6d3f1a3fd,BAD Brewing Co,micro,440 S Jefferson St,Mason,Michigan,48854-1654,United States,-84.4433383,42.5786176,5176767664,http://www.badbrewing.com,Michigan,2026-02-22 21:29:36
38863255-70b3-4201-bfd0-b4b0dab818d2,Bad Dad Brewery,micro,407 W. Washington St. Ste. C,Fairmount,Indiana,46928,United States,,,7654990941,http://www.baddadbrewery.com,Indiana,2026-02-22 21:29:36
c1496ab2-788d-454c-b205-9e852e54f682,Bad Habit Brewing Company,micro,15 E Minnesota St Ste 108,Saint Joseph,Minnesota,56374-4691,United States,,,3204024442,http://www.badhabitbeer.com,Minnesota,2026-02-22 21:29:36
0efdefd9-f325-479d-a0e7-dc9bf50b35e4,Bad Joker Brewing Company,micro,830 Powerhouse Dr,Rock Springs,Wyoming,82901-5494,United States,-109.20665402714,41.59874122433,3075225824,https://bad-joker-brewing-company.business.site,Wyoming,2026-02-22 21:29:36
9a296fcc-818b-4f73-88a4-a47dadc53a39,Bad Shepherd Brewing Co,micro,386 Reserve Road,Cheltenham,VIC,3192,Australia,145.0390473,-37.9566857,61385553175,http://www.badshepherd.com.au/,VIC,2026-02-22 21:29:36
7d84d498-dd3a-40ac-b920-5ec914defc24,Bad Shepherd Brewing Co.,micro,386 Reserve Road,Cheltenham,VIC,3192,Australia,145.0390473,-37.9566857,61385553175,http://www.badshepherd.com.au/,VIC,2026-02-22 21:29:36
748e6d2f-e6b9-4115-ae86-4828ed2f9c47,Bad Tattoo Brewing Company,micro,169 Estabrook Ave,Penticton,British Columbia,V2A 1A5,Canada,-119.5937077,49.4991381,12504938686,,British Columbia,2026-02-22 21:29:36
ccb3350f-eade-47d0-8fa7-351d20ead048,Bad Tom Smith Brewing,micro,4720 Eastern Ave,Cincinnati,Ohio,45226-1893,United States,-84.41803086,39.11995755,5138714677,http://www.badtomsmithbrewing.com,Ohio,2026-02-22 21:29:36
6f9649a1-b449-4542-8f23-837bec41f649,Bad Weather Brewing LLC,micro,414 7th St W,Saint Paul,Minnesota,55102-2733,United States,-93.1655001,44.9040455,6512076627,http://www.badweatherbrewery.com,Minnesota,2026-02-22 21:29:36
1937d9f8-9bc7-4a32-b04c-642879b8aa00,Badass Backyard Brewing,micro,1415 N Argonne Rd,Spokane Valley,Washington,99212-2685,United States,-117.282919,47.66990394,5092423225,http://badassbackyardbrewing.com,Washington,2026-02-22 21:29:36
d85636df-f559-4277-ab0c-c3ddf3853c4e,Badger Hill Brewing,micro,4571 Valley Industrial Blvd S Ste 500,Shakopee,Minnesota,55379-1846,United States,,,6123884479,http://www.badgerhillbrewing.com,Minnesota,2026-02-22 21:29:36
71857398-4e1c-4540-9ddb-36388193c880,Badger State Brewing Company,micro,990 Tony Canadeo Run,Green Bay,Wisconsin,54304-3762,United States,-88.05136473,44.49669718,9205435320,http://www.badgerstatebrewing.com,Wisconsin,2026-02-22 21:29:36
f0507649-6549-42d8-b8d7-c11e17ece27f,Badlands Brewery,micro,153 Summer Street,Orange,NSW,2800,Australia,149.0974307,-33.2825557,61421455325,https://www.badlandsbrewery.com.au/,NSW,2026-02-22 21:29:36
393816b0-7f91-450d-b65a-7f99f5cc8ae7,BADSONS Beer Co,micro,251 Roosevelt Dr,Derby,Connecticut,06418-1665,United States,-73.1322771,41.3513647,2033082654,http://www.badsoons.com,Connecticut,2026-02-22 21:29:36
c4459528-06a6-4f7b-a4a4-be62a1fbd420,BadWolf Brewing Company,micro,8420 Kao Cir,Manassas,Virginia,20110-1728,United States,,,7034792305,http://www.badwolfbrewingcompany.com,Virginia,2026-02-22 21:29:36
d42aade0-cd64-4ce2-a79d-4360413d3955,BadWolf Brewing Company,micro,9776 Center St,Manassas,Virginia,20110-4128,United States,-77.48972051,38.75356183,5713589774,http://www.badwolfbrewingcompany.com,Virginia,2026-02-22 21:29:36
e25d20e1-1700-45a6-b236-9eb6d01a9434,Baere Brewing Company,micro,"320 Broadway, Unit E",Denver,Colorado,80203-3955,United States,,,9709014810,http://www.baerebrewing.com,Colorado,2026-02-22 21:29:36
10ad1074-00f1-4731-9154-878dafcb58a9,Baerlic Brewing Co,micro,2235 SE 11th Ave,Portland,Oregon,97214-5303,United States,-122.6550828,45.50680595,5034779418,http://www.baerlicbrewing.com,Oregon,2026-02-22 21:29:36
a79c77fa-dd4c-4e3f-bf34-c50ae8032f5c,Baffin Brewing Co,micro,25113 Jefferson Ave,Saint Clair Shores,Michigan,48081-2303,United States,-82.888964,42.472227,5862187990,http://baffinbrewing.com,Michigan,2026-02-22 21:29:36
a715d721-e382-45e3-a035-18edf1dee861,"Baileson Brewing Company, LLC",micro,2322 Bissonnet St,Houston,Texas,77005-1512,United States,-95.41337465,29.72562404,8325169828,http://www.bailesonbrewing.com,Texas,2026-02-22 21:29:36
967cebda-71cb-487d-b4b9-c0640cfa3664,Bailey Brewing Co.,micro,Park Street,Henley Brook,WA,6055,Australia,115.9994362,-31.8129741,61861921830,https://www.baileybrewingco.com.au/,WA,2026-02-22 21:29:36
fcd34248-fb3f-410e-9550-31f71e91764f,Bainbridge Brewing,micro,9415 Coppertop Loop NE Ste 104,Bainbridge Island,Washington,98110-3339,United States,-122.5251446,47.64937373,2064514646,http://www.bainbridgebeer.com,Washington,2026-02-22 21:29:36
6413df9d-206d-409a-bf5a-405c4db6724e,Baker City Brewing Co,micro,2200 Main Street,Baker City,Oregon,97814,United States,-117.8293471,44.77928865,5415232337,http://www.barleybrowns.com,Oregon,2026-02-22 21:29:36
2f4107b2-90e6-422e-876b-6578924206bb,BAKFISH Brewing Company,micro,1231 Broadway St,Pearland,Texas,77581-6303,United States,-95.4174149,29.5551351,2819938658,http://www.bakfishbrewing.com,Texas,2026-02-22 21:29:36
ca101b8b-4b59-4298-a163-e5559e72358a,Bald Man Brewing Company,micro,2020 Silver Bell Rd Ste 25,Eagan,Minnesota,55122-1030,United States,,,6516003164,http://www.BaldManBrewing.com,Minnesota,2026-02-22 21:29:36
4c61ceb1-4256-4307-b538-5629a8613208,Bald Top Brewing Company,micro,1830 Thrift Rd,Madison,Virginia,22727-2843,United States,-78.2625296,38.3772921,5409991830,http://www.baldtopbrewing.com,Virginia,2026-02-22 21:29:36
91d2e9ea-dfdc-4469-89ea-1c7adcc2d19e,Balderdash Brewing Co.,micro,688 Abbott St,Vancouver,British Columbia,V6B 1H7,Canada,-123.1207375,49.2827291,,https://www.balderdashbeer.com,British Columbia,2026-02-22 21:29:36
9d58821d-291a-4258-82b2-bb7f97f5df63,Baleen Brewing Co.,micro,884 Mizzen Ln #9462,Ketchikan,Alaska,99901-9462,United States,-131.817681,55.472907,9072207492,https://www.baleenbrewing.com,Alaska,2026-02-22 21:29:36
4cee6968-b00d-4f1f-afd2-d6d54ef9dd89,Balgowan Brewery,micro,Currys Post Road,Balgowan,KwaZulu-Natal,3275,South Africa,30.0135,-29.4217,27793625818,,KwaZulu-Natal,2026-02-22 21:29:36
c879d0a8-e06e-45f7-8479-4c129119af47,Ballad Brewing,micro,600 Craghead St,Danville,Virginia,24541-1504,United States,-79.386371,36.584786,8049250109,http://www.balladbrewing.com,Virginia,2026-02-22 21:29:36
a0cabad3-837d-40ce-aa0a-dbd689ec216f,Ballistic Beer Co,micro,53-55 McCarthy Road,Salisbury,QLD,4107,Australia,153.0315574,-27.548333,61732776656,https://ballisticbeer.com/,QLD,2026-02-22 21:29:36
8a99be33-4ae4-451d-b8e4-01267db1d10d,Ballistic Beer Co.,micro,53-55 McCarthy Road,Salisbury,QLD,4107,Australia,153.0315574,-27.548333,61732776656,https://ballisticbeer.com/,QLD,2026-02-22 21:29:36
5598ed95-9b3e-40d4-bfdf-5d22fef4868d,Ballito Brewing Company,micro,8 Coconut Grove,Ballito,KwaZulu-Natal,4420,South Africa,31.2131,-29.5204,27329461902,https://www.ballitobrewingcompany.co.za/,KwaZulu-Natal,2026-02-22 21:29:36
6b42d56c-67bb-47e1-b856-01d87b414a14,Ballykilcavan Brewing Company,micro,Unnamed Street,Stradbally,Laois,R93 X3X8,Ireland,-7.115267515,53.01800718,,https://www.ballykilcavan.com/,Laois,2026-02-22 21:29:36
cb8d7ce9-114c-44b6-91de-45ad0cd2285f,Balsam Falls Brewing,micro,506 W Main St,Sylva,North Carolina,28779-5544,United States,-83.2218237,35.3737065,8286311987,,North Carolina,2026-02-22 21:29:36
b2e796bf-300d-494d-946e-994cfe05782f,Balter Brewing,micro,14 Traders Way,Currumbin Waters,QLD,4223,Australia,153.470668,-28.142652,61755256916,https://www.balter.com.au/tap-room/about?utm_source=google&utm_medium=organic&utm_campaign=gmb,QLD,2026-02-22 21:29:36
56be2bfb-6de2-4c08-b707-4e5a9e27005c,Banded Brewing Company,micro,32 Main St. Bldg 13-W Ste 102,Biddeford,Maine,04005-5145,United States,,,2076021561,http://www.bandedhorn.com,Maine,2026-02-22 21:29:36
2d0bf6d8-1aad-42f4-8553-f78c7b90e1fd,"Bandera Ale Project, LLC",micro,3540 State Highway 16 S Ste 2A,Bandera,Texas,78003-3561,United States,,,8305224226,http://www.banderabrewery.com,Texas,2026-02-22 21:29:36
29297833-9297-43fe-a9f4-4a9437a405c1,Bandit Brewing Co,micro,610 N 1st St Ste 5-228,Hamilton,Montana,59840-2149,United States,,,4066466003,http://www.banditbeer.com,Montana,2026-02-22 21:29:36
299ebba1-6bb3-4998-b4a5-e0f4fad4c443,Bandwagon Brewery,micro,3582 West Ave,Interlaken,New York,14847,United States,-76.7278241,42.61661956,6072295608,http://www.bandwagonbeer.com,New York,2026-02-22 21:29:36
d2af1d0e-cc9d-4c26-90a0-f768b9cfb344,Bang Brewing,micro,2320 Capp Rd,Saint Paul,Minnesota,55114-1251,United States,,,6512432264,http://www.bangbrewing.com,Minnesota,2026-02-22 21:29:36
6c11ccfe-9941-4c48-acc6-75217efabbce,Bang the Drum Brewery,micro,950 Orcutt Rd,San Luis Obispo,California,93401-6740,United States,-120.6452338,35.2615498,8587762973,http://www.bangthedrumbrewery.com,California,2026-02-22 21:29:36
cb33e61e-48cf-433e-96cd-7c336c6ef8bf,Banger Brewing Co,micro,450 Fremont St Ste 135,Las Vegas,Nevada,89101-5649,United States,,,7024562739,http://www.bangerbrewing.com,Nevada,2026-02-22 21:29:36
e049fe2d-95ad-4c99-8c93-439f39339b60,Bangin' Banjo Brewing Company,micro,3200 NW 23rd Ave Ste 500,Pompano Beach,Florida,33069-5909,United States,,,9549783113,http://www.banginbanjobrewing.com,Florida,2026-02-22 21:29:36
133a1850-eabe-4a10-95dc-827ae90965ee,Bank Brewing Co,micro,218 N Main St,Hendricks,Minnesota,56136-9501,United States,-96.42581655,44.50839827,6123092513,http://www.bankbrewing.com,Minnesota,2026-02-22 21:29:36
6865f9b6-b99a-4d4c-a12a-824924ac27ea,Banning's Inc,micro,620 Water St,Summersville,West Virginia,26651-1453,United States,-80.85147552,38.281623,3046196972,,West Virginia,2026-02-22 21:29:36
2f2b9e28-3550-4e57-80bf-4fa388200ed7,Barbarian Brewing - Downtown Taproom,micro,1022 W Main St,Boise,Idaho,83702-5705,United States,-116.206883,43.618407,2083872739,https://barbarianbrewing.com,Idaho,2026-02-22 21:29:36
056acce6-7847-43f3-9a24-c32ee66ae805,Barbarian Brewing - Garden City,micro,5270 W Chinden Blvd,Garden City,Idaho,83714-1457,United States,-116.272141,43.646318,2083872739,http://www.barbarianbrewing.com,Idaho,2026-02-22 21:29:36
9ae35285-00ed-4066-963c-8bfad2d16c29,Bardic Brewing and Cider,micro,15412 E Sprague Ave #14,Spokane Valley,Washington,99037,United States,-117.1984519,47.65665159,5097236105,https://bardicbrewing.com,Washington,2026-02-22 21:29:36
7574d2fa-b21c-48df-a206-8ea36cbc8229,Bardwell Winery and Brewery,micro,716 N High St,Mount Orab,Ohio,45154,United States,-83.9209789,39.0419795,,http://www.bardwellwinery.com,Ohio,2026-02-22 21:29:36
df0ca5e9-9372-4516-a191-e6bfe4c466b0,Bare Arms Brewing,micro,2515 La Salle Ave,Waco,Texas,76706-3929,United States,-97.13081959,31.52488462,2547598480,http://www.barearmsbrewing.com,Texas,2026-02-22 21:29:36
eaccdf46-40c0-4a05-a4b8-680f0e38f913,Bare Hands Brewery,micro,12804 Sandy Ct,Granger,Indiana,46530-4309,United States,,,5742772258,http://www.barehandsbrewbrewery.com,Indiana,2026-02-22 21:29:36
97ca045f-aa1a-429e-bd93-7461954b20fc,Barebottle Brewing Company,micro,1525 Cortland Ave,San Francisco,California,94110-5714,United States,-122.4090405,37.74000915,4159268617,http://www.barebottlebeer.com,California,2026-02-22 21:29:36
1c1fec67-f169-4646-b4d4-aeda1643fafb,BareWolf Brewing,micro,12 Oakland St,Amesbury,Massachusetts,01913,United States,-70.92336518,42.85606929,9783906540,http://www.barewolfbrewing.com,Massachusetts,2026-02-22 21:29:36
9056e8df-fe8c-4560-b669-fd31e9074c7c,Barkerville Brewing,micro,185 Davie Street,Quesnel,British Columbia,V2J 2S8,Canada,-122.4933399,52.9757055,17784142739,http://barkervillebeer.com/,British Columbia,2026-02-22 21:29:36
2c58a683-787e-4d26-a7f0-e12e31b36e74,Barking Armadillo Brewing,micro,507 River Bend,Georgetown,Texas,78723-3342,United States,-97.6932487,30.6608114,5122405137,http://www.barkingarmadillo.com/,Texas,2026-02-22 21:29:36
4e51c656-001a-4f64-9fcd-0edc5b8e6669,Barking Duck Brewing Company,micro,4400 Morris Park Dr Ste R,Mint Hill,North Carolina,28227-9269,United States,,,9809386300,http://www.barkingduckbrew.com,North Carolina,2026-02-22 21:29:36
7a470fd0-dc8f-4324-9c42-dd1428488f7d,Barley Browns Brewpub,micro,2190 Main St,Baker City,Oregon,97814-2655,United States,-117.8294962,44.7787802,5415234266,http://www.barleybrowns.com,Oregon,2026-02-22 21:29:36
fa5848d1-fd69-401e-b5ec-a59321e631b4,Barley Head Brewery,micro,12 Water St 1A,Mystic,Connecticut,06355,United States,,,,http://www.barleyheadbrewery.com,Connecticut,2026-02-22 21:29:36
bfb84336-c1e4-48e9-9d05-4a412b60e967,Barn Brewery,micro,2850 El Cajon Blvd Ste 3,San Diego,California,92104-1389,United States,-117.1324165,32.75568723,6199558228,http://www.thebarnbrew.com,California,2026-02-22 21:29:36
e468fc97-eef9-4067-9f20-2df846d8ca5b,Barn Door Brewing,micro,1174 SW Highway 99W,Dundee,Oregon,97115,United States,-123.0146104,45.27424538,9718328054,http://www.barndoorbrewing.com,Oregon,2026-02-22 21:29:36
5edc486d-03b2-4fe1-a794-e0a972e21bf6,Barnaby Brewing Company,micro,165 Shattuck Way,Juneau,Alaska,99801-1366,United States,-134.405962,58.300314,9074190916,http://www.barnabybrew.com,Alaska,2026-02-22 21:29:36
57cf86a1-3d0e-4ac7-8f50-b0bae8e34d9c,Barnett and Son Brewing Company,micro,18425 Pony Express Dr Unit 125,Parker,Colorado,80134-9605,United States,,,7204200462,,Colorado,2026-02-22 21:29:36
f2b298d8-a498-41bc-9321-770e03376866,Barnshed Brewing,micro,100 Lauman Ln,Hicksville,New York,11801-6574,United States,-73.50094256,40.74420335,5163766514,http://www.barnshedbrewing.com,New York,2026-02-22 21:29:36
c6c6e790-345d-4f46-90e3-6264d4962e1d,Barnstable Brewing,micro,485 W Main St,Hyannis,Massachusetts,02601-3644,United States,-70.31159594,41.64913517,7744706989,http://www.barnstablebrewing.com,Massachusetts,2026-02-22 21:29:36
54222b6c-3be1-4bf2-95b7-5085f07a6461,Barnstar Brewing,micro,4050 North Tonto Road (Forest Service Rd.102),Skull Valley,Arizona,86338,United States,,,9284422337,http://www.barnstarbrew.com,Arizona,2026-02-22 21:29:36
11903890-96c3-4019-b526-6bb0eea6c08c,Barona Brewing Company,micro,EM1036-1 2,Santo António das Areias,Portalegre,7330-215,Portugal,-7.3376936047272,39.437678925612,351214682661,https://www.cervejabarona.pt/,Portalegre,2026-02-22 21:29:36
8e3da0ab-cbfe-4264-a7d3-0fbcd697e64c,Barossa Valley Brewing,micro,2A Murray Street,Tanunda,SA,5352,Australia,138.949246,-34.5298193,61885630696,http://www.bvbeer.com.au/,SA,2026-02-22 21:29:36
3a2f762e-be48-4caf-ba77-d9253f50182a,Barrage Brewing Co,micro,32 Allen Blvd Ste E,Farmingdale,New York,11735-5625,United States,,,6313357941,http://www.barragebrewing.com,New York,2026-02-22 21:29:36
4fc60749-c0d0-4f94-ab92-e5bf566d455e,Barrel and Beam,micro,260 Northwoods RD,Marquette,Michigan,49855,United States,-87.4722168,46.54578,9062732559,http://www.barrelandbeam.com,Michigan,2026-02-22 21:29:36
75a66bb0-838f-4e86-adca-03c784fbda72,"Barrel Brothers Brewing Company, LLC",micro,399 Business Park Ct. #506,Windsor,California,95492,United States,-122.784706,38.52824916,7076969487,http://www.barrelbrothersbrewing.com,California,2026-02-22 21:29:36
2907b143-57b4-49ec-aa41-07df64d1e14b,Barrel Dog Brewing,micro,,Evergreen,Colorado,80439,United States,-105.321458,39.6361637,5599176846,,Colorado,2026-02-22 21:29:36
c13feda5-f313-4dfb-be56-07cb89d5f090,Barrel Harbor Brewing Co.,micro,2575 Pioneer Ave Ste 104,Vista,California,92081-8450,United States,-117.221385,33.14879,7607343949,http://www.barrelharborbrewing.com,California,2026-02-22 21:29:36
2949226a-b599-4e47-9c00-5e19012dd22b,Barrel House Z,micro,95 Woodrock Rd,Weymouth,Massachusetts,02189-2335,United States,,,3392017888,http://www.barrelhousez.net,Massachusetts,2026-02-22 21:29:36
c7d72e4c-452f-4218-a12d-f14abd400565,Barrel Mountain Brewing,micro,607 E Main St,Battle Ground,Washington,98604-4887,United States,-122.5309307,45.7808639,3603428111,http://www.barrelmountainbrewing.com,Washington,2026-02-22 21:29:36
60a0a684-e559-4865-ac34-561f9a0affeb,Barrel Oak Farm Taphouse,micro,3623 Grove Ln,Delaplane,Virginia,20144-2226,United States,,,5403646402,http://www.barreloak.com,Virginia,2026-02-22 21:29:36
4eb9962b-708d-4221-9eee-f68e2abead7a,Barrel of Monks Brewing,micro,1141 S Rogers Cir Ste 5,Boca Raton,Florida,33487-2789,United States,,,5615101253,http://www.barrelofmonks.com,Florida,2026-02-22 21:29:36
e11f74dd-00c9-4b81-b284-879dc08f3132,Barrel Theory Beer Company,micro,248 7th St E,Saint Paul,Minnesota,55101-2349,United States,-93.08803482,44.95106551,6516003422,http://www.barreltheory.com,Minnesota,2026-02-22 21:29:36
6ea2ecc3-d933-4c8d-852c-f20db3b19976,Barreled Souls Brewing Company LLC,micro,743 Portland Rd,Saco,Maine,04072-9005,United States,-70.405728,43.553358,2076026439,http://www.barreledsouls.com,Maine,2026-02-22 21:29:36
9bf73e25-63d1-48df-a3b8-f916d9f9edeb,Barrelhead Brewery,micro,2 Fairview Strand,Dublin,Dublin,D03 R8P3,Ireland,-6.2400171,53.3625745,353879900914,https://barrelheadbrewery.com/,Dublin,2026-02-22 21:29:36
fcac3d27-e6e5-4249-821b-15a0306895bb,Barrelhouse Brewing,micro,3055 Limestone Way,Paso Robles,California,93446-5988,United States,-120.6911529,35.5762216,8052961128,http://www.barrelhousebrewing.com,California,2026-02-22 21:29:36
a6704545-a3ff-4e4d-a458-90979968fe1c,Barrier Brewing Co,micro,3001 New St Ste A2,Oceanside,New York,11572-2747,United States,,,5165941028,http://www.barrierbrewing.com,New York,2026-02-22 21:29:36
01f591c5-3a87-4685-af4f-c4e9fccb3a47,Barrio Brewing Co,micro,800 E 16th St,Tucson,Arizona,85719-6603,United States,-110.959665,32.214613,5207912739,http://www.barriobrewing.co,Arizona,2026-02-22 21:29:36
8000063a-f3ac-41e0-8c1d-ad58ba3ad562,Barrow Brewing Company,micro,108 Royal St,Salado,Texas,76571,United States,-97.53703133,30.94295989,2549473544,http://www.barrowbrewing.com,Texas,2026-02-22 21:29:36
d73def5b-b039-4331-98b7-d84bd8a18a64,Bascule Brewery And Public House,micro,1397 Colorado Ave,Lorain,Ohio,44052-3377,United States,-82.15710792,41.46560548,,http://www.basculebrewingcompany.com,Ohio,2026-02-22 21:29:36
c4e818fa-6abc-440b-bdb5-c8172bb5fbd8,Base Camp Brewing Co,micro,930 SE Oak St,Portland,Oregon,97214-1307,United States,-122.6561108,45.5198818,5034777479,http://www.basecampbrewingco.com,Oregon,2026-02-22 21:29:36
4a9101f6-a7eb-461c-95c9-a0ce6bffdaeb,Basement Brewers of Texas,micro,521 Clay St,Kerrville,Texas,78028-4525,United States,-99.1392822,30.05042839,8309555073,http://www.basementbrewersoftexas.com,Texas,2026-02-22 21:29:36
101d5ecf-137f-4ee6-8fa6-c7e0fcced52c,Basement Brewhouse,micro,8 Greenfield Parade,Bankstown,NSW,2200,Australia,151.0334231,-33.9199158,61297229888,http://www.bankstownsports.com/brewhouse,NSW,2026-02-22 21:29:36
c9df8aa5-3a45-42fb-bac7-731e8aed32cb,Basic City Beer Co.,micro,1010 E Main St,Waynesboro,Virginia,22980-5855,United States,-78.87398588,38.0644451,8162713211,http://www.basiccitybeer.com,Virginia,2026-02-22 21:29:36
1e03e945-7418-4d87-9e61-ca95542a4580,Basic City Beer Co. (Southside RVA),micro,212 W 6th St,Richmond,Virginia,23224,United States,,,8044474735,https://www.basiccitybeer.com/rva-map,Virginia,2026-02-22 21:29:36
3be1e4b7-54d8-42f2-a49f-30a38b452570,Basset Breweries,micro,57 Club Lane,Pennington,KwaZulu-Natal,4184,South Africa,30.6865,-30.3876,27828224434,https://www.bassetbreweries.co.za/,KwaZulu-Natal,2026-02-22 21:29:36
66e4ffa1-88da-4a41-8bf3-fea86dbcaada,Bastard Brothers Brewing Company,micro,2114 Penta Dr,High Ridge,Missouri,63049-2684,United States,-90.503349,38.48282,3145203401,http://www.bastardbrothersbrewery.com,Missouri,2026-02-22 21:29:36
a8fae596-9e28-4451-a881-2d44c33df418,Batch Brewing Co,micro,44 Sydenham Road,Marrickville,NSW,2204,Australia,151.1648777,-33.9118045,61295505432,http://www.batchbrewingco.com.au/,NSW,2026-02-22 21:29:36
208f49b8-d747-4197-a6bc-234da030a523,Batch Brewing Co.,micro,44 Sydenham Road,Marrickville,NSW,2204,Australia,151.1648777,-33.9118045,61295505432,http://www.batchbrewingco.com.au/,NSW,2026-02-22 21:29:36
a151f905-61b7-4be5-8ea9-4d2a121a3980,Batch Brewing Company,micro,44 Sydenham Road,Marrickville,NSW,2204,Australia,151.1648777,-33.9118045,61295505432,http://www.batchbrewingco.com.au/,NSW,2026-02-22 21:29:36
7166c5a7-c772-44de-b0e1-fea41d5b4368,Bathtub Row Brewing Co-op,micro,163 Central Park Sq,Los Alamos,New Mexico,87544-4029,United States,-106.3007594,35.8839054,5055008381,,New Mexico,2026-02-22 21:29:36
8fa5ceba-e668-479e-9eb6-792be566eff2,Battered Boar Brewing Co,micro,14700 Metro Plaza Blvd Ste F,Edmond,Oklahoma,73013-1991,United States,-97.50849,35.619996,4052545000,http://www.batteredboar.com,Oklahoma,2026-02-22 21:29:36
5d9e917f-4b58-41bf-9acb-a4d06fcacba5,Battery Steele Brewing,micro,1 Industrial Way Ste 12,Portland,Maine,04103-1072,United States,,,,http://www.batterysteele.com,Maine,2026-02-22 21:29:36
ef48afa5-9ac1-439c-851d-0fb04b43786f,Battle Brewery,micro,North Trade Road,Battle,East Sussex,TN33 0HN,England,0.457425,50.916346,1424772838,http://battlebrewery.co.uk/,East Sussex,2026-02-22 21:29:36
ee894df8-970e-4fcd-96fd-56a385f03aab,Battle Hill Brewing Company,micro,4 Charles Street,Fort Ann,New York,12827,United States,-73.48739346,43.41676935,5186391033,http://www.battlehillbrewing.com,New York,2026-02-22 21:29:36
bbacaa05-6e27-4383-8e2d-f36e3f52b8d5,Battle Road Brewing Co,micro,5 Clock Tower Pl,Maynard,Massachusetts,01754-2530,United States,-71.45416113,42.43001225,9782985229,http://www.battleroadbh.com,Massachusetts,2026-02-22 21:29:36
a3d48843-21ee-44be-9f51-d83784bf12f7,Battlemage Brewing Co,micro,2870 Scott St Ste 102,Vista,California,92081-8556,United States,-117.227634,33.140153,7602166425,http://www.battlemagebrewing.com,California,2026-02-22 21:29:36
45bf9811-0d89-40c3-a020-2d2638a0c932,Bauhaus Brew Labs,micro,1315 Tyler St NE,Minneapolis,Minnesota,55413-1530,United States,-93.237365,45.042082,6122976911,http://bauhausbrewlabs.com,Minnesota,2026-02-22 21:29:36
9c9033e3-8657-4d05-af18-5bc1d3077810,Bawden Street Brewing Company,micro,325 Bawden St,Ketchikan,Alaska,99901-6502,United States,-131.644822,55.34321,9072254722,https://www.facebook.com/bawdenstreetbrewing,Alaska,2026-02-22 21:29:36
decc7931-94cf-4acb-badc-4b3ab00736be,Bay Bridge Brewing Co,micro,688 Marsat Ct Ste B,Chula Vista,California,91911-4697,United States,-117.0830312,32.601264,6199347371,http://www.baybridgebrewing.com,California,2026-02-22 21:29:36
ee153c57-00c1-4321-8ae7-473a3cb65fa2,Bay City Brewing Co.,micro,3760 Hancock St,San Diego,California,92110,United States,-117.2117833,32.7580759,6197274926,http://www.baycitybrewingco.com,California,2026-02-22 21:29:36
f954ebc8-030d-4bd7-9685-1ffd34ac3001,Bay Road Brewing,micro,89 Donnison Street,Gosford,NSW,2250,Australia,151.3399984,-33.4269598,61243223046,http://www.bayrdbrewing.com.au/,NSW,2026-02-22 21:29:36
eb869777-2904-4e42-bff5-c3251b88735a,Bay State Beer Company,micro,,Sturbridge,Massachusetts,01566-1568,United States,,,6174130939,http://www.baystatebeer.com,Massachusetts,2026-02-22 21:29:36
ee95babd-8312-4f94-8c5a-a411c1dbd999,Bayern Brewing Inc.,micro,1507 Montana St,Missoula,Montana,59801-1409,United States,-114.0202088,46.8725952,4067211482,http://www.bayernbrewery.com,Montana,2026-02-22 21:29:36
faabb5c6-fc44-4300-84cd-66f8af67e8fd,Bayou Teche Brewing,micro,1002 Noth Lane,Arnaudville,Louisiana,70512,United States,-91.925099,30.391754,3377545122,http://www.bayoutechebrewing.com,Louisiana,2026-02-22 21:29:36
a30cdbff-d7d7-48b2-8aa1-90a25758ad02,BDD Brewing Company,micro,1147 Falls Rd Ste 107,Rocky Mount,North Carolina,27804,United States,-77.80208267,35.958026,9196327551,,North Carolina,2026-02-22 21:29:36
ad77c6d8-4801-47a3-b9a2-28cb708ba512,Beach Cat Brewing,micro,7876 Birch Bay Dr #101,Blaine,Washington,98230,United States,-122.7447863,48.92831088,3603668065,https://beachcatbrewing.com,Washington,2026-02-22 21:29:36
2ba06f5f-f88d-472c-a281-cea7f32c7d36,Beach Grease Beer Company,micro,1280 Activity Dr Ste B,Vista,California,92081,United States,-117.219665,33.14225042,,http://www.beachgreasebeerco.com,California,2026-02-22 21:29:36
864c6024-1ead-484f-9a4c-71572c000060,Beach Haus Brewery,micro,801 Main St,Belmar,New Jersey,07719-2705,United States,-74.0251959,40.1812131,7322027782,http://Www.beachhausbeer.com,New Jersey,2026-02-22 21:29:36
4f5f6278-99db-45cf-9ed3-72744cd475d4,Beachside Brew Pub,micro,1368 Ocean Shore Blvd,Ormond Beach,Florida,32176-3630,United States,-81.057048,29.326634,3868465143,http://www.beachsidebrewpub.com,Florida,2026-02-22 21:29:36
8a7df4b6-5ea6-4ca2-bb72-8b9813cb1e62,Beachwood Blendery,micro,247 Long Beach Blvd,Long Beach,California,90802-3136,United States,-118.1894715,33.77015096,,http://beachwoodbbq.com/blendery.html,California,2026-02-22 21:29:36
67b706ab-6f63-4178-a09c-fdd2119b6b32,Beachwood Brewing,micro,7631 Woodwind Dr Ste B,Huntington Beach,California,92647-7117,United States,-117.9953281,33.70446704,5103269575,http://www.beachwoodbbq.com,California,2026-02-22 21:29:36
5703ac6f-9a97-4529-b62e-7034433e0636,Bear and Bramble Brewing Company,micro,10 Payson Ave # 1,Easthampton,Massachusetts,01027-2207,United States,,,,,Massachusetts,2026-02-22 21:29:36
70141f89-287c-496b-8379-bdef1a8f4d0d,Bear Bones Beer,micro,2 Cottage St Ste 1,Bridgton,Maine,04009-1137,United States,,,2076478000,,Maine,2026-02-22 21:29:36
25a5fef8-192f-4cd3-95b2-9d0a903354f5,Bear Bones Beer,micro,43 Lisbon St,Lewiston,Maine,04240-7115,United States,-70.09605519,44.02012732,2072001324,http://www.bearbonesbeer.com,Maine,2026-02-22 21:29:36
c682b36a-29b9-429f-b109-e75251bb6cd8,Bear Creek Brews,micro,10538 Nc 902 Hwy,Bear Creek,North Carolina,27207-9269,United States,,,9192003930,http://www.bearcreekbrews.com,North Carolina,2026-02-22 21:29:36
7ce869c5-a47a-4bab-ac9f-775ee05a0a2e,Bear Island Brewing Company,micro,1620 N Liberty St,Boise,Idaho,83704-7739,United States,-116.260854,43.620592,2089082496,http://www.bearislandbrewing.com,Idaho,2026-02-22 21:29:36
05d9957f-92a7-4616-baeb-9f85fa170f22,Bear Roots Brewing Company,micro,1213 S Santa Fe Ave,Vista,California,92083-7230,United States,-117.226238,33.188251,7607264204,http://www.bearrootsbrewing.com,California,2026-02-22 21:29:36
a24f319e-eb59-4658-b104-3437dbb34068,Beara Brewing Co.,micro,2800 Lafayette Rd,Portsmouth,New Hampshire,03801-5915,United States,-70.790732,43.027935,3475780585,http://www.bearairishbrew.com,New Hampshire,2026-02-22 21:29:36
cfd1342e-ac6e-4c57-9d5c-c120c6d7468b,Beard Engine Brewing Co,micro,208 Main St,Alba,Missouri,64830,United States,-94.418276,37.248046,4174830709,,Missouri,2026-02-22 21:29:36
955a2a30-363a-427e-ae1e-905be4de0829,Beard's Brewing Co.,micro,10408 Alaska Rd,Fort St. John,British Columbia,V1J 3X2,Canada,-120.8531309,56.2396479,12502624104,https://www.beardsbrewing.ca,British Columbia,2026-02-22 21:29:36
3a8c6632-e9df-4d42-9adb-a2cb5c6863c8,Bearded Fox Brewing Co.,micro,11729 Spring Cypress Rd Ste R,Tomball,Texas,77377-6063,United States,,,8327617928,http://www.beardedfoxbrewing.com,Texas,2026-02-22 21:29:36
667547fa-dcf1-4b05-9f59-53c6c7a24847,Bearded Iris Brewing,micro,101 Van Buren St,Nashville,Tennessee,37208-1719,United States,-86.786174,36.181424,6159287988,http://www.beardedirisbrewing.com,Tennessee,2026-02-22 21:29:36
882b9abc-a864-42f2-9cc3-f35286b0aaec,Beards Brewery Production Facility,micro,6328 Ferry Ave,Charlevoix,Michigan,49720-9504,United States,-85.249116,45.304738,,,Michigan,2026-02-22 21:29:36
b534a072-f086-416b-bfce-3efdcba1784b,Bearpaw River Brewing Co,micro,4605 E Palmer Wasilla Hwy,Wasilla,Alaska,99654-7679,United States,-149.4127103,61.5752695,,http://bearpawriverbrewing.com,Alaska,2026-02-22 21:29:36
112759fc-c374-4931-8624-0c487bd7820d,Beaver Brewery,micro,14 Tang Street,Coconut Grove,NT,810,Australia,130.8545911,-12.3997094,61412089948,https://www.beaverbrewery.com.au/,NT,2026-02-22 21:29:36
ef663619-6faa-4478-b754-c54f6f5cc823,Beaver Creek Brewery,micro,104 W Oregon Ave,Wibaux,Montana,59353-8001,United States,,,4067952337,http://www.beavercreekbrewery.com,Montana,2026-02-22 21:29:36
2ca3add8-8d9b-4195-a269-5cc0d4afcc07,Beaver Island Brewing Company,micro,216 6th Ave S,Saint Cloud,Minnesota,56301-4304,United States,-94.15733312,45.5585455,3202535907,http://www.beaverislandbrew.com,Minnesota,2026-02-22 21:29:36
4fc62fdf-21cf-4b30-9f08-f40ee4ffac46,Beaverhead Brewing Co,micro,218 S Montana St,Dillon,Montana,59725-2438,United States,-112.6396875,45.21575351,4069880011,http://www.beaverheadbeer.com,Montana,2026-02-22 21:29:36
40b45277-e99b-4068-894b-b4fb9fbf987f,Beavers Bend Brewery,micro,46 Coho Rd,Broken Bow,Oklahoma,74728-6765,United States,-94.7595504,34.1658072,5804943455,http://www.beaversbendbrewery.com,Oklahoma,2026-02-22 21:29:36
0b77f859-3790-499b-9d8a-13cb628363d8,Bedlam Brewery Ltd,micro,Plumpton Green,Lewes,East Sussex,BN7 3DH,England,-0.068698,50.948125,1273978015,https://bedlambrewery.co.uk/,East Sussex,2026-02-22 21:29:36
4e43ccbc-bc47-405d-a48b-1d928c5ca462,Beech Mountain Brewing Company,micro,1007 Beech Mountain Pkwy,Beech Mountain,North Carolina,28604-8018,United States,-81.873356,36.16819584,8283872011,http://www.beechmountainresort.com,North Carolina,2026-02-22 21:29:36
a0adf1e8-ce6a-4c06-a605-434032d6fa18,Beehive Basin Brewery,micro,245 Town Center Ave,Big Sky,Montana,59716,United States,-111.3037009,45.259632,4069957444,http://www.beehivebasinbrewery.com,Montana,2026-02-22 21:29:36
d137a8cd-c65a-42c7-b537-b6e98b46c7af,Beer Engine,micro,107 Larrimore Ln,Danville,Kentucky,40422-1674,United States,-84.771328,37.6481,5024035680,http://www.kybeerengine.com,Kentucky,2026-02-22 21:29:36
3477a416-4704-4a80-835b-adcb220c64bb,Beer Fontaine,micro,1575B Botany Road,Botany,NSW,2019,Australia,151.2007962,-33.9524167,61272084486,http://beerfontaine.com.au/,NSW,2026-02-22 21:29:36
2fd04e11-b782-40c8-9d56-49698bbf2afa,Beer Garden Brewing,micro,28 London Street,Port Lincoln,SA,5606,Australia,135.8699779,-34.724806,61875301400,http://www.portlincoln.beer/,SA,2026-02-22 21:29:36
1bfba23f-2815-4f28-9d5d-37bca2306903,Beer Is Good Brewing Company,micro,216 E Main,Norman,Oklahoma,73069,United States,-97.4411294,35.2216069,4058577080,http://bigbrew.co,Oklahoma,2026-02-22 21:29:36
bf244193-89cd-4321-906c-abda26f7199d,Beer Lab HI - Beretania,micro,1318 S Beretania St,Honolulu,Hawaii,96814-1512,United States,-157.84062241753,21.301160773613,8088880500,https://www.beerlabhi.com/beretania,Hawaii,2026-02-22 21:29:36
a8a27ab9-3403-4fa9-a852-ceb6fe938af4,Beer On Earth,micro,425 W Fountain St #104,Providence,Rhode Island,02903,United States,-71.4238514,41.8189698,4018850580,http://www.beeronearth.com,Rhode Island,2026-02-22 21:29:36
0d1319b0-3903-4e0d-88a1-7994da395a3c,Beer Thug Brewing Company,micro,4400 Gage Ave,Bell,California,90201,United States,-118.18860164471,33.978161447335,2133068955,https://www.beerthugbrew.com/,California,2026-02-22 21:29:36
36e42b14-6bb0-4bba-b9d4-662def2778a6,Beer Tree Brew Co,micro,197 Rte 369,Port Crane,New York,13833,United States,,,,http://www.beertreebrew.com,New York,2026-02-22 21:29:36
b2acd8dd-3606-4794-bddb-db8e476f5ef2,Beer Valley Brewing Co,micro,937 SE 12th Ave,Ontario,Oregon,97914-4473,United States,-116.9539806,44.01504307,5418819088,http://www.beervalleybrewing.com,Oregon,2026-02-22 21:29:36
25ba48be-b514-4a04-9278-96dd6192e172,Beerfarm,micro,177 Gale Road,Metricup,WA,6280,Australia,115.1491063,-33.7866894,61897557177,http://www.beerfarm.com.au/,WA,2026-02-22 21:29:36
09c40072-dae9-445b-a8e5-574ac4c9371a,Beerfoot Beach Bar,micro,2816 Avenue R 1/2,Galveston,Texas,77550-7742,United States,,,4097622337,http://www.yagaspresents.com/beerfoot/index.html,Texas,2026-02-22 21:29:36
01883283-4a13-4857-9aad-e06298863ff3,Begyle Brewing,micro,1800 W Cuyler Ave Ste 1E,Chicago,Illinois,60613-3892,United States,,,7736616963,http://www.begylebrewing.com,Illinois,2026-02-22 21:29:36
93cacbb3-3e6b-47a9-a446-43ad639e6762,Belching Beaver Brewery Vista,micro,980 Park Center Dr Ste A,Vista,California,92081-8351,United States,-117.2410328,33.20215305,7605995832,http://www.belchingbeaver.com,California,2026-02-22 21:29:36
20ebe2cc-2803-4085-aada-cc38ea1a1f74,Belford Brewing Company,micro,84 Leonardville Rd,Belford,New Jersey,07718-1144,United States,,,7327697168,http://www.belfordbrewing.com,New Jersey,2026-02-22 21:29:36
262a1ab1-6ea6-445e-bd22-5d56d3877287,Bellefonte Brewing Co,micro,3605 Old Capitol Trl Unit C7/C8,Wilmington,Delaware,19808-6043,United States,,,3025401055,http://www.bellefontebrewingco.com,Delaware,2026-02-22 21:29:36
d88e48bb-6bc9-46a6-a91f-56ec550e3262,Bells Beach Brewing,micro,22 Baines Crescent,Torquay,VIC,3228,Australia,144.3143953,-38.326986,61370198161,http://www.bellsbeachbrewing.com/,VIC,2026-02-22 21:29:36
7258dd32-e31a-42a1-ad47-68b29e59bfef,Bellwether Brewing Co,micro,2019 N Monroe St,Spokane,Washington,99205-4542,United States,-117.4265497,47.67645574,5092808345,http://www.bellwetherbrewing.net,Washington,2026-02-22 21:29:36
1fcbc3b2-91be-4668-9519-e0ec141e1ec6,Belly Up Beer Company,micro,,Western Springs,Illinois,60558,United States,,,7088379762,http://www.bellyupbeer.com,Illinois,2026-02-22 21:29:36
3e8bc011-fde9-480c-aed4-b1aa9a99fa57,Beltway Brewing Company,micro,22620 Davis Dr Ste 110,Sterling,Virginia,20164-4470,United States,-77.4172876,38.9914289,5719892739,http://www.beltwaybrewco.com,Virginia,2026-02-22 21:29:36
80fb35c8-eef8-49f7-8d97-ed0a432d52c3,Ben's Brewing Station,micro,719 Walnut Street,Yankton,South Dakota,57078-3542,United States,-97.39428007,42.8771861,6056619090,http://www.bensbrewing.shop,South Dakota,2026-02-22 21:29:36
