id,name,brewery_type,address_1,city,state_province,postal_code,country,longitude,latitude,phone,website_url,state,processed_at
49eaa1ab-5cee-40cd-a0dc-da14ba2b7dac,1000 Hills Brewing Company,brewpub,168 Old Main Road,Durban,KwaZulu-Natal,3610,South Africa,30.7063,-29.7711,27317771566,https://1000hillsbrewingcompany.co.za/,KwaZulu-Natal,2026-02-22 21:29:36
58293321-14ae-49d7-9a7b-08436c9e63a6,1188 Brewing Co,brewpub,141 E Main St,John Day,Oregon,97845-1210,United States,-118.9218754,44.4146563,5415751188,http://www.1188brewing.com,Oregon,2026-02-22 21:29:36
d81ff708-b5d2-478f-af6a-6d40f5beb9ac,12 Gates Brewing Company,brewpub,80 Earhart Dr Ste 20,Williamsville,New York,14221-7804,United States,,,7169066600,http://www.12gatesbrewing.com,New York,2026-02-22 21:29:36
06e9fffb-e820-45c9-b107-b52b51013e8f,12Degree Brewing,brewpub,820 Main St,Louisville,Colorado,80027-1865,United States,-105.1319826,39.9782443,3035791004,http://www.12degree.com,Colorado,2026-02-22 21:29:36
45119c56-345b-4adc-b481-c5cf7bfe98c4,13 Stripes Brewery,brewpub,"250 Mill St, Suite PW3101",Taylors,South Carolina,29687,United States,,,8643491430,http://www.13StripesBrewery.com,South Carolina,2026-02-22 21:29:36
936c3d7e-5d54-4459-b72c-117cdda059b4,13 Virtues Brewing Co,brewpub,6410 SE Milwaukie Ave,Portland,Oregon,97202-5518,United States,-122.6487531,45.4762536,5032393831,http://www.13virtuesbrewing.com,Oregon,2026-02-22 21:29:36
85192a9c-58a4-48c3-bd9d-496d09d22aa3,16 Lots Brewing,brewpub,753 Reading Rd,Mason,Ohio,45040-1303,United States,-84.3183801,39.3545967,5134863672,http://www.16lots.com,Ohio,2026-02-22 21:29:36
ee6d39c6-092f-4623-8099-5b8643f70dbe,16 Stone Brewpub,brewpub,9542 Main St,Holland Patent,New York,13354,United States,-75.2565195,43.24211175,3158658500,http://www.16stonebrewpub.com,New York,2026-02-22 21:29:36
d35b40b0-a3ff-4878-a6ee-9caa2149b521,1623 Brewing Company,brewpub,5975 Exchange Dr Suite H-L,Eldersburg,Maryland,21784,United States,-76.9773575,39.4164017,4432181410,https://1623brewing.com,Maryland,2026-02-22 21:29:36
f41a0c47-ba9b-4547-bfed-fcbefe0fc74b,1718 Ocracoke Brewing,brewpub,1129 Irvin Garrish Hwy,Ocracoke,North Carolina,27960,United States,-75.97176063,35.10715368,2529282337,http://www.ocracokebrewing.com,North Carolina,2026-02-22 21:29:36
2005a2bb-0f89-4520-8553-f79cf0b4c909,2 Feet Brewing Company,brewpub,80 Columbia St,Bangor,Maine,04401-6319,United States,-68.77283099,44.80012684,2075731979,http://www.2feetbrewing.com,Maine,2026-02-22 21:29:36
5ec3b488-48bd-49a7-9828-05bd90195cd5,2 Tread Brewing Co,brewpub,1018 Santa Rosa Plz,Santa Rosa,California,95401-6399,United States,-122.7167729,38.4387767,4152330857,http://www.2treadbrewing.com,California,2026-02-22 21:29:36
8624d11b-8593-49a8-89b4-c46a0f111cd7,2 Way Brewing Company,brewpub,18 W Main St,Beacon,New York,12508-2512,United States,-73.9809868,41.5082102,8452027334,http://www.2waybrewingcompany.com,New York,2026-02-22 21:29:36
64a48d9e-08e9-45e3-83ca-f00d24bb7e49,20 Corners Brewing LLC,brewpub,14148 NE 190th St Ste A,Woodinville,Washington,98072-8437,United States,-122.1517007,47.76864301,4253755223,http://www.20cornersbrewing.com,Washington,2026-02-22 21:29:36
c018299b-db2d-438b-b58c-ecaa0f07a0df,210 Brewing Co,brewpub,3438 Stoluckquamish Ln,Arlington,Washington,98223-9056,United States,-122.18421,48.215096,3604749740,http://www.angelofthewind.com,Washington,2026-02-22 21:29:36
8f9621dc-da98-4ddb-82a1-039c9e2b3224,21st Amendment Brewery Cafe,brewpub,563 2nd St,San Francisco,California,94107-1411,United States,-122.3925769,37.782448,4153690900,http://www.21st-amendment.com,California,2026-02-22 21:29:36
84337872-75da-4cdd-9f8f-1e1691f21642,21st St Brewers Bar,brewpub,2017 Chouteau Ave,Saint Louis,Missouri,63103,United States,-90.213781,38.624291,3142416969,http://www.21stbrew.com,Missouri,2026-02-22 21:29:36
2711c5ad-83cb-4917-932e-b8bbf1a25ffb,23 Brewing Company / Lizzie B's Cafe,brewpub,2010 KY Route 321,Prestonsburg,Kentucky,41653-9103,United States,,,6068862844,http://www.23brewingcompany.com,Kentucky,2026-02-22 21:29:36
c70c8ad5-4bfa-4b2a-a383-7e7d15e0baf9,23rd Street Brewery,brewpub,3512 Clinton Pkwy,Lawrence,Kansas,66047-2145,United States,-95.28093353,38.9429674,7858562337,http://www.brew23.com,Kansas,2026-02-22 21:29:36
be0ec266-d637-42e4-94ba-4ce21e456054,2nd Shift Brewing Co,brewpub,1601 Sublette Ave,Saint Louis,Missouri,63110-1924,United States,-90.280526,38.621943,6187910728,http://www.2ndshiftbrewing.com,Missouri,2026-02-22 21:29:36
fb8eee34-da8a-42b2-bc4c-77020024a7f0,2nd Story Brewing Company,brewpub,117 Chestnut St Frnt,Philadelphia,Pennsylvania,19106-4700,United States,,,2673145770,http://www.2ndstorybrewing.com/,Pennsylvania,2026-02-22 21:29:36
1218736c-bfcf-4b95-b473-7399aaf60d1d,"3 Keys Brewing Company, LLC",brewpub,2505 Manatee Ave E,Bradenton,Florida,34208-2421,United States,-82.53393502,27.49645026,9412180396,http://www.3keysbrewing.com,Florida,2026-02-22 21:29:36
2f6062af-4d6f-42b2-b4ad-626cf01a1fec,300 Suns Brewing Company,brewpub,335 1st Ave Unit C,Longmont,Colorado,80501-5958,United States,,,,http://www.300sunsbrewing.com,Colorado,2026-02-22 21:29:36
3b0b5b9b-f6d8-49e3-8ebd-0bcef6939bcd,32 North Brewing Co,brewpub,8655 Production Ave Ste A,San Diego,California,92121-2258,United States,-117.1649842,32.88313237,6193632622,https://42northbrewing.com,California,2026-02-22 21:29:36
3b836ff9-8088-4df0-b2f1-8287f2a35b81,33 Acres Brewing Company,brewpub,15 West 8th Avenue,Vancouver,British Columbia,V5Y 1M8,Canada,-123.1053533,49.2637804,,http://www.33acresbrewing.com,British Columbia,2026-02-22 21:29:36
70749225-122e-4824-852b-29680e90c8ec,33 Brewing Experiment,brewpub,25 West 8th Avenue,Vancouver,British Columbia,V5Y 1M8,Canada,-123.1053533,49.2637804,,http://www.33acresbrewing.com,British Columbia,2026-02-22 21:29:36
098595c2-f606-40b4-9b49-195f73fb6fd6,350 Brewing Co,brewpub,7144 183rd St,Tinley Park,Illinois,60477-3933,United States,-87.79160288,41.55864726,7088257339,http://www.350brewing.com,Illinois,2026-02-22 21:29:36
dfa3f8fc-21cf-443d-ba8d-8adfc6873852,38Â°-75Â° Brewing,brewpub,2000 Coastal Highway STE 105,Rehoboth Beach,Delaware,19971,United States,-75.090191,38.7074994,3022278519,,Delaware,2026-02-22 21:29:36
4f70ac94-eca5-4cec-8581-92ec5afdf4f2,3Halves Brewing Co,brewpub,110 E Kansas St,Liberty,Missouri,64068-2374,United States,-94.4190247,39.2461993,8164296886,http://www.3halvesbrewingco.com,Missouri,2026-02-22 21:29:36
b237e2d5-dabc-41f9-a3ff-2b4e3f3a9c8e,4 Stitch Brewing Co - Taproom & Kitchen,brewpub,5817 238th St SE Ste 3,Woodinville,Washington,98072-8669,United States,-122.15488674812,47.782473284418,4252866004,https://www.4stitchbrewing.com,Washington,2026-02-22 21:29:36
ef60f8cf-0fdc-4ea1-aa94-09e1f869176b,412 Brews,brewpub,706 Island Ave,Mc Kees Rocks,Pennsylvania,15136-3287,United States,,,,http://www.412brews.com,Pennsylvania,2026-02-22 21:29:36
dad10840-28ab-4dcf-9005-bf2cc2665b5a,42 North Brewing Company,brewpub,25 Pine St,East Aurora,New York,14052-1827,United States,-78.607989,42.769311,7168057500,http://www.42northbrewing.com,New York,2026-02-22 21:29:36
52dd0878-928b-4b47-b7fa-602f140592ed,4204 Main Street Brewing Co,brewpub,4204 W Main St,Belleville,Illinois,62226,United States,-90.02053343,38.53796122,6184167261,,Illinois,2026-02-22 21:29:36
eb3d0c66-bbe8-495d-a876-924f0c0cf509,450 North Brewing Company @ Simmons Winery,brewpub,8111 E 450 N,Columbus,Indiana,47203-8106,United States,,,8125460091,http://www.450northbrewing.com,Indiana,2026-02-22 21:29:36
6b892c61-269b-453f-acd1-b79491b0ef0b,47 Hills Brewing Co,brewpub,137 S Linden Ave,South San Francisco,California,94080-6410,United States,-122.4136168,37.64425595,6508678476,http://47hillsbrewingcompany.com,California,2026-02-22 21:29:36
eaa4afea-bcb5-434c-839e-ef48fe8811d0,49th State Brewing Co - Anchorage,brewpub,717 W 3rd Ave,Anchorage,Alaska,99501-2104,United States,-149.8958196,61.2197366,9076832739,http://www.49statebrewing.com/,Alaska,2026-02-22 21:29:36
dbf0d7e7-4e2c-4574-9dee-791d95496811,4B's Brewery,brewpub,215 W Main St,Cedaredge,Colorado,81413-3339,United States,-107.925782,38.900614,9708567762,http://www.4bsbrewery.com,Colorado,2026-02-22 21:29:36
53efe9e9-dbb3-4c98-ab77-61515abef2a9,4kd Crick Brewery,brewpub,211 Carpenter Rd,Defiance,Ohio,43512-1718,United States,-84.341647,41.296252,4199562863,http://Www.4kdcrickbrewery.com,Ohio,2026-02-22 21:29:36
c17a3e56-4d4e-405e-a21b-85f415903674,5 Lakes Brewing Co.,brewpub,1638 142nd Ave,Dorr,Michigan,49323-9312,United States,-85.70445518,42.72497157,6163599555,http://www.5lakesbrewing.com,Michigan,2026-02-22 21:29:36
80c395e8-28c8-460a-9cc5-721fcc22410f,5 Seasons Brewing Co - Prado,brewpub,5600 Roswell Rd,Sandy Springs,Georgia,30342-1150,United States,-84.3796711,33.9078086,4042555911,http://www.5seasonsbrewing.com,Georgia,2026-02-22 21:29:36
baad8dd7-b295-480c-8f64-e499562a3662,5 Seasons Brewing Co - Westside,brewpub,1000 Marietta St NW Ste 204,Atlanta,Georgia,30318-0683,United States,,,4048753232,http://www.5seasonsbrewing.com,Georgia,2026-02-22 21:29:36
132540a2-23c8-4720-8c58-31292d264c4a,51st State Brewing Company,brewpub,115 Harding Ave,Kingsford,Michigan,49802-3815,United States,-88.08819,45.808408,9068282167,http://www.51ststatebrewingcompany.com,Michigan,2026-02-22 21:29:36
4d878d25-a8fb-49e7-93da-56d229bf46ff,54-40 Brewing Company,brewpub,3801 S Truman Rd Ste 1,Washougal,Washington,98671-2589,United States,-122.3269349,45.56577849,3609077062,http://www.54-40brewing.com,Washington,2026-02-22 21:29:36
90d1fa86-77d7-4a21-9818-e338fa6fdb96,583 양조장(583 Brewery),brewpub,"583-8, Uiam-ro",Jangsu-gun,Jeollabukdo,55621,South Korea,127.6205123,35.68271721,0633535515,http://www.583beer.modoo.at,Jeollabukdo,2026-02-22 21:29:36
258bdc0a-6d5d-4c36-bcf7-e150b3ec6333,5th Company Brewing,brewpub,325 Front Street,Perryville,Maryland,21903,United States,-76.0769909,39.5581614,4106182046,http://www.5thcompanybrewing.com/,Maryland,2026-02-22 21:29:36
e5992621-3c91-4968-b913-85972aa66fbb,"6 Bears & A Goat Brewing Company, LLC",brewpub,1140 International Pkwy,Fredericksburg,Virginia,22406-1126,United States,,,54035690562,http://www.6bgbrewingco.com,Virginia,2026-02-22 21:29:36
6f431fe7-b136-444b-84e3-3a2042903d93,6 Degrees of Separation,brewpub,35 Main St,Ossining,New York,10562-4662,United States,-73.86768188,41.15866213,9144325969,http://www.6degreesbp.com,New York,2026-02-22 21:29:36
af6cb069-b61a-4c69-8fd2-0a5f87c11a17,6th and La Brea,brewpub,600 South La Brea Ave,Los Angeles,California,90036,United States,-118.3440213,34.0730485,,http://www.6thlabrea.com,California,2026-02-22 21:29:36
6a928a00-bf8e-4481-ae27-a2a5b14f56e2,7 Devils Brewing Co,brewpub,247 S 2nd St,Coos Bay,Oregon,97420-1642,United States,-124.2147508,43.36654751,5418083738,http://www.7devilsbrewery.com,Oregon,2026-02-22 21:29:36
8824022a-0fd9-4727-b6fa-b7aaf65eb043,7 Hermits Brewing Company,brewpub,PO Box 3186,Eagle,Colorado,81631-3186,United States,,,9704714979,http://www.7hermitsbrewing.com,Colorado,2026-02-22 21:29:36
e861ea88-9815-48a0-84ba-d2a1929178e7,7 Hills Brewing Company,brewpub,1085 Washington St,Dubuque,Iowa,52001-4932,United States,-90.6635263,42.5045556,5635878306,http://www.7hillsbrew.com,Iowa,2026-02-22 21:29:36
a3a1eac7-b858-4bdd-81ac-c2099b717da2,7 Sisters Brewing Co,brewpub,181 Tank Farm Rd Ste 110,San Luis Obispo,California,93401-7082,United States,-120.6706375,35.2467278,8058687133,http://www.7sistersbrewing.com,California,2026-02-22 21:29:36
3f3220f8-75f8-4fea-a5a4-289aa3267f11,"718BrewCafe, LLP",brewpub,718 Market St,Metropolis,Illinois,62960-1634,United States,-88.73129158,37.15373334,6185247180,http://www.718BrewCafe.com,Illinois,2026-02-22 21:29:36
c6a766f9-a187-4e5b-9519-6c737ce0cde5,8 Bit Brewing Company,brewpub,26755 Jefferson Ave Ste F,Murrieta,California,92562-6941,United States,-117.1762542,33.53033448,9516772322,http://www.8bitbrewerycompany.com,California,2026-02-22 21:29:36
187f0cfc-1433-4d8c-89c0-5b4151504a71,841 Brewhouse,brewpub,841 E Milwaukee St,Whitewater,Wisconsin,53190-2126,United States,-88.71427344,42.8323014,2624738000,,Wisconsin,2026-02-22 21:29:36
2d880e85-5b0f-447b-b1b2-5bcae8a4b130,8th Street Ale Haus,brewpub,1132 N 8th St,Sheboygan,Wisconsin,53081-3402,United States,-87.71305702,43.75674392,9202087540,http://www.sheboyganalehaus.com,Wisconsin,2026-02-22 21:29:36
b4e012c5-0f36-4d0a-a40b-cbcb29c7ceed,95ate5 Brewpub,brewpub,9585 N Industrial Dr,Saint John,Indiana,46373,United States,-87.46380305,41.44400246,2193656506,http://www.95ate5.com,Indiana,2026-02-22 21:29:36
30d8f77b-aeec-4435-a280-16bacd1b1c97,Aberrant Ales,brewpub,219 W Grand River Ave,Howell,Michigan,48843,United States,-83.93094539,42.60773722,5175188699,http://www.aberrantales.com,Michigan,2026-02-22 21:29:36
e2fa853c-ca91-4043-878d-0bcee9900ea3,Abigaile,brewpub,1301 Manhattan Ave,Hermosa Beach,California,90254-3666,United States,-118.4048656,33.8734519,3107988227,http://abigailrestaurant.com,California,2026-02-22 21:29:36
00221d0f-2ed7-41d1-95b8-d8b1bfbc8b0e,Abner's Restaurant Inc / Northern Michigan Beer,brewpub,7528 N Woodbridge (M37),Brohman,Michigan,49312,United States,,,2316892295,,Michigan,2026-02-22 21:29:36
28e05fda-77a4-4a5a-9f8a-08169ec07ce5,Abolitionist Ale Works,brewpub,129 W Washington St,Charles Town,West Virginia,25414-1529,United States,-77.8607888,39.28867207,6812521548,http://www.abolitionistaleworks.com,West Virginia,2026-02-22 21:29:36
bec6adc5-3a3b-4793-8364-c58f16e88cc8,Abridged Beer Company,brewpub,100 Lockett Rd,Knoxville,Tennessee,37919-4807,United States,-84.016459,35.932287,8658989438,http://www.abridgedbeer.com,Tennessee,2026-02-22 21:29:36
600f88e5-9dc9-4a41-b54e-909c292ba4bb,Absolution By the Sea,brewpub,7536 Fay Ave,La Jolla,California,92037-4839,United States,-117.2740167,32.84083388,6192024152,,California,2026-02-22 21:29:36
829f7243-78f3-4282-b0e8-1a5fcb10a229,Accomplice Beer Company,brewpub,115 W 15th St,Cheyenne,Wyoming,82001-4564,United States,-104.819296,41.130063,3076322337,http://www.accomplicebeer.com,Wyoming,2026-02-22 21:29:36
d4661358-81e2-454d-9fe2-b08ef6fc16fe,Adventure South,brewpub,3300 Dill Smith Dr,Fredericksburg,Virginia,22408-7319,United States,,,5403717799,http://www.adventurebrewing.com,Virginia,2026-02-22 21:29:36
82b967b9-3808-4716-9a51-58f80cd038c6,Aegir Project Brewery,brewpub,65 Beach Road,Cape Town,Western Cape,7979,South Africa,18.3582,-34.1035,27665879566,https://aegirprojectbrewery.com/,Western Cape,2026-02-22 21:29:36
580dba92-5b7a-4e6c-9129-ac5621c90ecd,Afro Caribbean Brewing Company,brewpub,157 Second Avenue,Cape Town,Western Cape,7925,South Africa,18.4705,-33.9372,27214471787,https://www.acbc.co.za/,Western Cape,2026-02-22 21:29:36
dfec4bba-cfbc-4562-b6be-f0563f51821a,Aiken Brewing Co,brewpub,140 Laurens St SW,Aiken,South Carolina,29801-3848,United States,-81.7228141,33.5603084,8035020707,http://www.aikenbrewingcompany.com,South Carolina,2026-02-22 21:29:36
828ee507-7142-4c7c-9f0b-82964d4195d0,Akademia Brewing Company,brewpub,150 Crane Dr,Athens,Georgia,30606-0600,United States,-83.47153754,33.94270289,7064613208,http://www.AkademiaBC.com,Georgia,2026-02-22 21:29:36
aa3c4d60-4fb2-49e2-980c-6a61672d90cb,Alaro Craft Brewery,brewpub,2004 Capitol Ave,Sacramento,California,95811,United States,-121.4811835,38.57323961,9164367711,http://www.alarobrewing.com,California,2026-02-22 21:29:36
d188560a-fd0d-4a44-9e4b-11aab9db8205,Albia Brewing Co,brewpub,11 Benton Ave E,Albia,Iowa,52531-2032,United States,-92.8073711,41.02718903,6419324085,http://www.albiabrewingcompany.blogspot.com,Iowa,2026-02-22 21:29:36
4c8a98d1-1012-4814-82a5-20c68b131442,Albion Malleable Brewing Company,brewpub,420 S Superior St,Albion,Michigan,49224,United States,-84.7532755,42.2423188,5173432202,http://www.albionmalleable.com,Michigan,2026-02-22 21:29:36
e51921d1-17c2-4f4d-93b4-d88fe56c27de,Ale House,brewpub,82 Steve Biko Street,Potchefstroom,North West,2531,South Africa,27.0911,-26.7118,27182975447,https://thealehouse.co.za/,North West,2026-02-22 21:29:36
31746e2a-3704-458f-8235-437f53d5afe1,Alesatian Brewing Co.,brewpub,21 N Loudoun St,Winchester,Virginia,22601-4715,United States,-78.16559208,39.18446446,5406672743,http://www.alesatianbrewing.com,Virginia,2026-02-22 21:29:36
ed3ea3ae-04d3-4356-ab96-a74514992a50,Alewife Brewing Company,brewpub,514 51st Ave,Long Island City,New York,11101-5879,United States,-73.95625257,40.74232214,7189377494,http://www.alewife.beer,New York,2026-02-22 21:29:36
e1f999c9-3012-41ab-869b-767125e19b7f,Alien Brewpub,brewpub,6601 Uptown Blvd NE Ste B,Albuquerque,New Mexico,87110-4207,United States,,,5058841116,http://www.abqbrewpub.com,New Mexico,2026-02-22 21:29:36
108b8592-3098-42a3-b466-5c60e2e626af,All Rise Brewing Co,brewpub,235 N Ashland Ave,Chicago,Illinois,60607-1401,United States,-87.6667328,41.8864021,3122266300,http://www.allrisebrewing.com,Illinois,2026-02-22 21:29:36
3f583ab8-71bf-4009-9257-193ef53a1fe1,Allentown Brew Works,brewpub,812 Hamilton St,Allentown,Pennsylvania,18101-2437,United States,-75.4575021,40.6060468,6104337777,http://www.thebrewworks.com,Pennsylvania,2026-02-22 21:29:36
4d43c467-2e30-4b93-a25c-d1e46998dc07,Alma Brewing Co,brewpub,208 E Superior St,Alma,Michigan,48801-1819,United States,-84.6588719,43.37888808,9894620208,http://www.almabrewing.com,Michigan,2026-02-22 21:29:36
cc1c18dc-77d7-4ca5-b3b7-8180f77feecd,Aloha Beer Co,brewpub,700 Queen St,Honolulu,Hawaii,96813-5110,United States,-157.857248,21.301249,8085441605,http://www.alohabeer.com,Hawaii,2026-02-22 21:29:36
1d7c2273-8031-40d2-bb50-7f518722e291,Alpine Beer Company,brewpub,6550 Mira Mesa Blvd,San Diego,California,92121-4100,United States,-117.113975,32.9167796,6194452337,http://www.alpinebrewing.com,California,2026-02-22 21:29:36
8e69dcd6-de4f-41b5-a9be-cc35844fb273,ALT Brew / Greenview Brewing LLC,brewpub,1808 Wright St,Madison,Wisconsin,53704-2522,United States,-89.33026,43.12576305,6083523373,http://www.altbrew.com,Wisconsin,2026-02-22 21:29:36
b71c080f-8514-4100-bbb3-40d2582b8122,Altitude Chophouse and Brewery,brewpub,320 S 2nd St,Laramie,Wyoming,82070-3612,United States,-105.5953366,41.31038565,3077214031,http://www.altitudechophouse.com,Wyoming,2026-02-22 21:29:36
c1e6f260-1f52-4e38-bc14-ae58fdb7bb14,Altruist Brewing Company,brewpub,559 Main St Unit 105,Sturbridge,Massachusetts,01518-1208,United States,,,7742418022,http://www.altruistbrewing.com,Massachusetts,2026-02-22 21:29:36
08bf17d8-5f8f-40bc-88cb-5661f0791b35,Alvarado Street Brewery & Grill,brewpub,426 Alvarado St,Monterey,California,93940-2711,United States,-121.8946096,36.59857755,8316552337,,California,2026-02-22 21:29:36
97ea0a56-c25b-45ab-afaa-ff0b37d68de5,Amani Brewing,brewpub,654 Ropp Dr,Martinsburg,West Virginia,25403-1533,United States,-77.949602,39.5332966,3042793861,https://amanibrewing.com,West Virginia,2026-02-22 21:29:36
5fffcb8c-fbca-4633-8ef4-7bfd7dd6d473,Amber Lantern Brewing Company,brewpub,44 N Main St,Warsaw,New York,14569-1326,United States,-78.132363,42.7408423,5857863559,http://www.amberlanternbrewingcompany.com,New York,2026-02-22 21:29:36
f02ee574-d02d-486f-8d2e-851ad54b25ab,Amelia Island Brewing Company,brewpub,318 Centre St,Fernandina Beach,Florida,32034-4241,United States,-81.46236272,30.67106045,9043106088,http://www.theameliatavern.com,Florida,2026-02-22 21:29:36
538f360a-f2b7-48fc-aa66-3ed35af0f62e,American Harvest Brewpub At Schoolcraft College,brewpub,18600 Haggerty Rd,Livonia,Michigan,48152-3932,United States,-83.42868497,42.419317,7344627659,http://www.schoolcraft.edu,Michigan,2026-02-22 21:29:36
6ec8cb60-72f6-4c30-af4b-3e59e736b3fc,American Icon Brewery,brewpub,1133 19th Place,Vero Beach,Florida,32960,United States,-80.3955067,27.63674361,7729344266,http://www.americaniconbrewery.com,Florida,2026-02-22 21:29:36
32dd19c9-33b8-4ed5-b5f0-1fb5f5d8ad02,Amerisports Brew Pub,brewpub,3200 Ameristar Dr,Kansas City,Missouri,64161,United States,-94.484526,39.150682,8164147435,http://www.ameristar.com,Missouri,2026-02-22 21:29:36
fb1c5883-f652-4375-b887-a424584d0d9d,Amherst Brewing Co / Hangar Pub and Grill,brewpub,10 University Dr,Amherst,Massachusetts,01002-2243,United States,-72.5318418,42.3728635,4132534400,http://www.amherstbrewing.com,Massachusetts,2026-02-22 21:29:36
fd0d376e-1c1d-48ce-ba6f-897298c20b85,Amplified Ale Works,brewpub,4150 Mission Blvd Ste 208,San Diego,California,92109-5054,United States,-117.2511178,32.7719729,6195871400,http://www.amplifiedales.com,California,2026-02-22 21:29:36
c3f5bb6a-c7f4-45a9-829c-3978625f111e,Amplified Ale Works Miramar Studio,brewpub,9030 Kenamar Dr Ste 309,San Diego,California,92121-2432,United States,-117.1570695,32.88687598,6503804220,https://amplifiedales.com/,California,2026-02-22 21:29:36
f99c834f-df7e-41e9-8236-ce0d25e43189,Anacapa Brewing Co,brewpub,472 E Main St,Ventura,California,93001-2627,United States,-119.2935874,34.28073347,8056432337,http://www.anacapabrewing.com,California,2026-02-22 21:29:36
3447e49a-c978-471a-8c46-62244ca757b8,Anacortes Brewery/Rockfish Grill,brewpub,320 Commercial Ave,Anacortes,Washington,98221-1517,United States,-122.6126089,48.51933431,3605881720,http://www.anacortesrockfish.com,Washington,2026-02-22 21:29:36
126392f8-8260-4619-a561-ec20153c6779,Ancestry Brewery,brewpub,20585 SW 115th Ave,Tualatin,Oregon,97062-6857,United States,-122.7967838,45.3711546,5037060448,http://www.ancestrybrewing.com,Oregon,2026-02-22 21:29:36
1d690623-2a47-4bb2-aecb-08f51a8ef390,Anders Browar,brewpub,Broniewskiego 33,Syców,dolnośląskie,56-500,Poland,17.7046519,51.3044034,,,dolnośląskie,2026-02-22 21:29:36
64b090eb-64c7-4dc2-9799-d0420b517169,Angry Minnow Brewery,brewpub,10440 Florida Ave,Hayward,Wisconsin,54843-7112,United States,-91.4887672,46.0104853,7159343055,http://www.angryminnow.com,Wisconsin,2026-02-22 21:29:36
fa4da286-e9a3-4d00-ab49-8e5f027f76d5,Angry Troll Brewing / 222 Public House,brewpub,222 E Main St Ste U2,Elkin,North Carolina,28621-3493,United States,,,3362582251,http://www.angrytrollbrewing.com,North Carolina,2026-02-22 21:29:36
c498dd04-30b2-4f8f-b06b-c47a34dd61c7,Animas Brewing Co,brewpub,1560 E 2nd Ave,Durango,Colorado,81301-5186,United States,-107.8769912,37.27997215,9704038850,http://www.animasbrewing.com,Colorado,2026-02-22 21:29:36
516c104c-11fb-43d7-89cb-cf0a36236baf,Anvil Ale House,brewpub,728 Kruis Street,Dullstroom,Mpumalanga,1110,South Africa,30.1017,-25.4223,27731697155,https://www.anvilale.co.za/,Mpumalanga,2026-02-22 21:29:36
26a850f9-f796-427c-810d-84b4ae08dfbb,Anvil Brewing,brewpub,115 S. Compress St,Pittsburg,Texas,75686-1353,United States,,,9039267741,http://www.anvilbrewingtx.com,Texas,2026-02-22 21:29:36
625f2c38-c681-4d85-b4b6-2e5ee25d79a9,APE BREWING,brewpub,2-1-15 Kawaramachi Kawaramachi Daito Building 1F,Osaka,Osaka,541-0048,Japan,135.5076625,34.68696137,81676619443,https://www.instagram.com/ape_brewing,Osaka,2026-02-22 21:29:36
855b2e6e-9fa0-40da-bcba-343bef14d556,Appalachian Brewing Co - Collegeville,brewpub,50 W Third Ave Collegeville Station 2nd Floor,Collegeville,Pennsylvania,19426-3655,United States,,,4849736064,http://www.abcbrew.com,Pennsylvania,2026-02-22 21:29:36
cb55778e-fc31-4634-b56f-570961484c8d,Appalachian Brewing Co - Gettysburg Gateway,brewpub,70 Presidential Cir,Gettysburg,Pennsylvania,17325-8399,United States,,,7173982419,http://www.abcbrew.com,Pennsylvania,2026-02-22 21:29:36
48fd38a6-736f-4e76-b69a-8642d82c67df,Appalachian Brewing Co - Harrisburg,brewpub,50 N Cameron St,Harrisburg,Pennsylvania,17101-2407,United States,-76.8816961,40.291059,7172211080,http://www.abcbrew.com,Pennsylvania,2026-02-22 21:29:36
dddd1391-58ad-4a74-bd0d-93997ccaf17d,Appalachian Brewing Co - Lititz,brewpub,55 N Water St,Lititz,Pennsylvania,17543-1612,United States,-76.30100986,40.15827375,7172211080,http://www.abcbrew.com,Pennsylvania,2026-02-22 21:29:36
19693f1b-962f-4b88-8d53-7faf3e176208,Appalachian Brewing Co - Mechanicsburg,brewpub,6462 Carlisle Pike,Mechanicsburg,Pennsylvania,17050-2384,United States,,,7177954660,http://www.abcbrew.com,Pennsylvania,2026-02-22 21:29:36
b5d8ac9a-0449-46e7-8eb8-c1078ee793bb,Apple Blossom Brewing Co,brewpub,1550 E Zion Rd,Fayetteville,Arkansas,72703-5017,United States,-94.1372796,36.1297079,4792874344,http://www.appleblossombrewing.com,Arkansas,2026-02-22 21:29:36
12a02dc2-b34b-48cd-8e34-eac44554c0cf,Appleton Beer Factory,brewpub,603 W College Ave,Appleton,Wisconsin,54911-5803,United States,-88.4139148,44.26173602,9203649931,http://www.appletonbeerfactory.com,Wisconsin,2026-02-22 21:29:36
ea5535e7-94e9-4c24-baa4-32b15b495c8b,Apponaug Brewing,brewpub,334 Knight St,Warwick,Rhode Island,02886,United States,-71.4691256,41.7265254,4016814321,http://www.apponaugbrewing.com,Rhode Island,2026-02-22 21:29:36
e04c1682-dba4-4366-ac2e-4a8dab19da3c,Aquabrew,brewpub,150 S L B J Dr,San Marcos,Texas,78666-5506,United States,,,5123532739,http://www.aqua-brew.com,Texas,2026-02-22 21:29:36
250d36ec-b9f2-46f4-a4d9-17216f6490b6,Arbor Brewing Co,brewpub,114 E Washington St,Ann Arbor,Michigan,48104-1905,United States,-83.74822471,42.28041029,7342131393,http://www.arborbrewing.com,Michigan,2026-02-22 21:29:36
084a0621-2a9d-4588-825e-5c5cebc4e8db,Arcadian Moon,brewpub,19203 Old Highway 40,Higginsville,Missouri,64037,United States,-93.773203,39.001467,6605846661,http://www.arcadianmoon.com,Missouri,2026-02-22 21:29:36
cf5055f4-59f8-4adf-b16c-b9233281bedf,Archaic Craft Brewery At Centro,brewpub,140 E Main St,Tustin,California,92780-4408,United States,-117.823173,33.7419754,7142588817,,California,2026-02-22 21:29:36
1914fbf9-74d3-4115-909e-fddcb112e227,Argilla Brewing Co @ Pietro's Pizza,brewpub,2667 Kirkwood Hwy,Newark,Delaware,19711-7242,United States,,,3027318200,http://www.argillabrewing.com,Delaware,2026-02-22 21:29:36
701f00a8-fa71-4b74-9fb9-cf82c24c5b38,Arizona Wilderness Brewing,brewpub,721 N Arizona Ave,Gilbert,Arizona,85233-3405,United States,,,4804972739,http://Azwbeer.com,Arizona,2026-02-22 21:29:36
e10fa788-d3d7-4917-bf66-4caf54d5e6bf,Arlington Brewery & Cidery,brewpub,1060 Spioenkop Street,Arlington,Gauteng,1933,South Africa,28.0267,-26.7909,27721912470,https://arlington.co.za/,Gauteng,2026-02-22 21:29:36
244d5454-88ea-41c3-b3b7-c4374e8b795c,"Armour Brewing Company, LLC",brewpub,721 Main St,Armour,South Dakota,57313-2122,United States,-98.34450702,43.33084265,4028901550,http://www.facebook.com/ArmourBrewingCompany,South Dakota,2026-02-22 21:29:36
118dd02b-488c-48a7-bfd0-7b49ee168f96,Arrowhead Ales Brewing Company,brewpub,2101 Calistoga Dr,New Lenox,Illinois,60451-4826,United States,-87.95726941,41.48205844,8157176068,http://www.arrowheadales.com,Illinois,2026-02-22 21:29:36
e0783ffa-721d-45e2-9715-cbc1023a7d27,Artisan's Brewery & Italian Grill,brewpub,1171 Hooper Ave,Toms River,New Jersey,08753-8305,United States,-74.1880387,39.9625642,7322447566,http://www.artisanstomsriver.com,New Jersey,2026-02-22 21:29:36
ed7c9e44-df88-4e3e-8ed2-54af6f4539e5,Arts District Brewing Company,brewpub,828 Traction Ave,Los Angeles,California,90013-1816,United States,-118.2357029,34.04505443,,,California,2026-02-22 21:29:36
6f83ab76-9ebd-4b2c-a290-effaa2dca8b9,Arundel Brewery Ltd,brewpub,Lyminster Road,Arundel,West Sussex,BN17 7QL,England,-0.534301,50.839971,1903733111,https://www.arundelbrewery.co.uk/,West Sussex,2026-02-22 21:29:36
39b6533a-40a4-4ba1-a41e-dd8f381b7ed7,Arundel Cellars & Brewing Co,brewpub,11727 E Main Rd,North East,Pennsylvania,16428-3635,United States,-79.8216539,42.2195527,8147251079,http://www.arundelcellars.com,Pennsylvania,2026-02-22 21:29:36
ce507918-f969-4d44-a218-daca121c4bd0,Ascension Brewing Company,brewpub,42000 Grand River Ave,Novi,Michigan,48375-1831,United States,-83.4609783,42.4783271,2483082093,http://www.ascension.beer,Michigan,2026-02-22 21:29:36
b5671147-4dec-4e19-b256-79a2f03b94e9,Asheville Brewing Co,brewpub,77 Coxe Ave,Asheville,North Carolina,28801-3621,United States,-82.55530545,35.5917763,8282554077,http://www.ashevillepizza.com,North Carolina,2026-02-22 21:29:36
be88a2bb-0975-416c-b9f4-c571ddf70e5c,Athens Brewing Co,brewpub,101 E Tyler St,Athens,Texas,75751-2547,United States,-95.852642,32.205458,9039527493,http://www.athensbrewingco.com,Texas,2026-02-22 21:29:36
36a6f65e-aa9d-45d5-9ce8-cbbc82ca9ab1,Atlantic Brewing Co / Bar Harbor Brewing,brewpub,52 Cottage Street Bar Harbor,Bar Harbor,Maine,04609,United States,-68.20607075,44.389488,2072884592,http://www.barharborbrewing.com,Maine,2026-02-22 21:29:36
41b3fd0e-0083-4f6a-96d8-dff2554e4731,Atlas Brew Works - Ivy City,brewpub,600 Howard Rd SE #100,Washington,District of Columbia,20002-5841,United States,-77.0007019169,38.865736315853,2028320420,https://atlasbrewworks.com/pages/ivy-city,District of Columbia,2026-02-22 21:29:36
aaba0413-9bee-49ac-9bef-8159dcd353d0,Atomic Ale Brewpub and Eatery,brewpub,1015 Lee Blvd,Richland,Washington,99352-4226,United States,-119.2782003,46.27475515,5099465465,http://www.atomicalebrewpub.com,Washington,2026-02-22 21:29:36
14693124-55bc-43e9-817e-b99a85f662ac,Atwater Grand Rapids,brewpub,201 Michigan St NW,Grand Rapids,Michigan,49503-2323,United States,-85.672454,42.970463,6166493020,,Michigan,2026-02-22 21:29:36
89d36a6d-1226-4c61-b4c6-22676a55a364,Atwater In the Park Biergarten and Tap House,brewpub,1175 Lakepointe St,Grosse Pointe Park,Michigan,48230-1319,United States,-82.9399103,42.3814617,3133445104,http://www.atwaterbeer.com,Michigan,2026-02-22 21:29:36
b556e8ca-eb4b-46c4-a1bc-b5bb2e33b605,Auburn Alehouse,brewpub,289 Washington St,Auburn,California,95603-5036,United States,-121.0789583,38.89612107,5308852537,http://www.auburnalehouse.com,California,2026-02-22 21:29:36
895ef2f2-7ce5-44c7-af97-ee9c7cce774b,Augusta Brewing Co,brewpub,109 W Main St,Washington,Missouri,63090-2191,United States,-91.01173472,38.56026935,6362395010,http://www.augustabrewing.com,Missouri,2026-02-22 21:29:36
9209ed61-b9dd-4b06-bf2c-8cacbef097f8,Augustino Brewing,brewpub,756 N Tyler Rd,Wichita,Kansas,67212-3617,United States,-97.44431468,37.69517328,3167215554,http://www.augustinobrew.com,Kansas,2026-02-22 21:29:36
26079ee9-0313-425a-84b6-25d0eda4f596,Austin Brothers' Beer Company,brewpub,821 W Miller St,Alpena,Michigan,49707-1825,United States,-83.43583578,45.07296998,9893402300,http://www.austinbrosbeerco.com,Michigan,2026-02-22 21:29:36
322a5eb4-e725-4c03-b532-a64153037076,Automatic Brewing Co. / Blind Lady Alehouse,brewpub,3416 Adams Ave,San Diego,California,92116-2428,United States,-117.120151,32.763588,6192007522,http://www.blindlady.blogspot.com,California,2026-02-22 21:29:36
102c478e-ab27-4c8c-82c3-8eaee82959fa,Avalanche Brewing Co,brewpub,1067 Blair St,Silverton,Colorado,81433-0377,United States,-107.664791,37.8098899,9703875282,http://www.avalanchebrewing.com,Colorado,2026-02-22 21:29:36
22d43b9c-e8ba-412b-bb36-da1fc749fe80,B.O.B's Brewery,brewpub,20 Monroe Ave NW,Grand Rapids,Michigan,49503-6208,United States,-85.67248446,42.9638257,6163562000,http://thebobsbrewery.thebob.com,Michigan,2026-02-22 21:29:36
569b794f-4e15-446c-b249-9699e8687d40,Babe's Bar-B-Que and Brewhouse,brewpub,71800 Highway 111 Ste A176,Rancho Mirage,California,92270-4495,United States,-116.4110483,33.74096746,7603468738,https://www.babesbbqbrewery.com/,California,2026-02-22 21:29:36
7ce4af1b-ca7d-409f-b199-2a26d9e04a9d,Back Forty Beer Company - Huntsville,brewpub,3254 Leeman Ferry Rd SW,Huntsville,Alabama,35801-5322,United States,-86.593511745898,34.689851351215,2564948658,https://www.backfortybeer.com/huntsville,Alabama,2026-02-22 21:29:36
6a5579c9-66ee-414f-9a01-fe627b6cf309,Back Hill Beer Company,brewpub,73 Pickering Rd,Rochester,New Hampshire,03839,United States,,,,,New Hampshire,2026-02-22 21:29:36
933637d8-72b2-4812-8795-48c3da52f206,Backroom Brewery,brewpub,150 Ridgemont Rd,Middletown,Virginia,22645-3817,United States,,,5408698482,http://www.backroombreweryva.com,Virginia,2026-02-22 21:29:36
9ae1ef58-7652-40a7-9abc-7900a57109a8,Backside Brewing Co,brewpub,1640 NE Odell Ave,Roseburg,Oregon,97470-3320,United States,-123.3377881,43.21449839,5415801906,http://www.backsidebrewingco.com,Oregon,2026-02-22 21:29:36
b6685b52-d4f2-4b41-a3d9-f88c778b2346,Backslope Brewing,brewpub,1107 9th St W (Highway 2),Columbia Falls,Montana,59912,United States,,,4062242510,http://www.backslopebrewing.com,Montana,2026-02-22 21:29:36
be52e354-8456-4703-88d0-f33cfa777e6b,Backyard Brewery,brewpub,1211 S Mammoth Rd,Manchester,New Hampshire,03109-5101,United States,-71.4134598,42.93534925,6036233545,http://www.backyardbrewerynh.com,New Hampshire,2026-02-22 21:29:36
007b572b-cb61-478b-aa08-2966a1a028d5,Bad Martha Farmer's Brewery,brewpub,270 Upper Main St,Edgartown,Massachusetts,02539-,United States,-70.52732,41.394402,5089394415,http://www.badmarthabeer.com,Massachusetts,2026-02-22 21:29:36
7e470330-e32a-42aa-8d9b-db15529b8faa,Bad Shepherd Beer Company,brewpub,702 Quarrier St,Charleston,West Virginia,25301-2627,United States,-81.63612015,38.35094943,3045527569,http://www.blacksheepwv.com,West Virginia,2026-02-22 21:29:36
1630747e-8c36-4a34-9531-02d6b5ac2a28,Bad Tom Smith Brewing,brewpub,1836 W 25th St,Cleveland,Ohio,44113-3142,United States,-81.7051638,41.4861772,,,Ohio,2026-02-22 21:29:36
62c3eba7-bba3-4ab5-aa14-9b049415c3df,"Bag and Kettle, The",brewpub,9000 Main St Apt 21,Carrabassett Valley,Maine,04947-6808,United States,,,2072372451,http://www.thebagandkettle.com,Maine,2026-02-22 21:29:36
f167edfa-21ec-466a-89dd-b78ef6037c55,Bagby Beer Company,brewpub,601 S Coast Hwy,Oceanside,California,92054-4120,United States,-117.373847,33.189591,7602709075,http://www.bagbybeer.com,California,2026-02-22 21:29:36
f08b4937-45cd-45cc-bd0f-93d84f392d86,Bainbridge Brewing Alehouse,brewpub,500 Winslow Way E #110,Bainbridge Island,Washington,98110,United States,-122.5145398,47.62624505,2063176986,http://www.bainbridgebeer.com,Washington,2026-02-22 21:29:36
a85f70a5-1b54-43ba-8ab3-261e20f8d570,Balter Beerworks,brewpub,100 S Broadway St,Knoxville,Tennessee,37902-1901,United States,-83.92432,35.96654,8659995015,http://www.balterbeerworks.com,Tennessee,2026-02-22 21:29:36
4b2cb700-2a42-4a22-8811-b15879b6b401,Bam Entertainment Center,brewpub,478 E 16th St,Holland,Michigan,49423-3793,United States,-86.08555156,42.7812873,6163927086,http://www.gobamgo.com,Michigan,2026-02-22 21:29:36
2b725797-9b61-4bf9-bb7f-85127e955905,Band Of Bohemia,brewpub,4710 N Ravenswood Ave,Chicago,Illinois,60640-4408,United States,-87.6750827,41.9675954,7732714710,http://bandofbohemia.com,Illinois,2026-02-22 21:29:36
2b5fbb61-2e0b-42ec-8d68-dcc62fe244e9,Banded Oak Brewing Company,brewpub,470 N Broadway,Denver,Colorado,80203-3404,United States,-104.9874187,39.7282897,7204798033,http://Bandedoakbrewing.com,Colorado,2026-02-22 21:29:36
3063b641-c33f-492c-bcac-f0b591221abf,Bandon Brewing Company,brewpub,395 2nd St SE,Bandon,Oregon,97411-9605,United States,-124.4122494,43.1191572,5413473911,http://www.bandonbrewingco.com,Oregon,2026-02-22 21:29:36
e8a8053c-22a8-4f42-90e0-5d6474477a10,Bangor Beer Co.,brewpub,330 Bangor Mall Blvd,Bangor,Maine,04401-3644,United States,,,2079476605,http://www.bangorbeerco.com,Maine,2026-02-22 21:29:36
5d408c7c-fb56-4012-bd83-3471f43ffc2f,Bangor Trust Brewing,brewpub,15 Broadway,Bangor,Pennsylvania,18013-2601,United States,,,6104523232,http://bangortrustbrewing.com,Pennsylvania,2026-02-22 21:29:36
a8a4b78e-6e6c-4c93-a1bb-e364353f25ce,Bankhead Brewing Company,brewpub,3840 Main St,Rowlett,Texas,75088-5073,United States,-96.56610883,32.9029137,2143847953,http://www.bankheadbrewing.com,Texas,2026-02-22 21:29:36
38ec976b-9832-425c-818e-7843b722acec,Bar 3 BBQ and Brewing,brewpub,100 S Broadway,Belgrade,Montana,59714-3909,United States,-111.1770268,45.7751537,4063889182,http://www.bar3bbq.com,Montana,2026-02-22 21:29:36
ddccedb0-12d1-442c-bd66-3c2fe9b0fe80,Bar D Brew House,brewpub,213 N High St,San Saba,Texas,76877-3533,United States,-98.71854917,31.19678472,3253726100,http://www.bardbrewhouse.com,Texas,2026-02-22 21:29:36
a834c4b5-4852-4887-aa6f-c872dfc10824,Bar Hygge / Brewery Techne,brewpub,1720 Fairmount Ave,Philadelphia,Pennsylvania,19130-2858,United States,-75.16567302,39.96707286,,,Pennsylvania,2026-02-22 21:29:36
32d22f8c-1a9a-45ea-a8b0-daf3a002fb5b,Bare Bones Brewery,brewpub,4362 County Rd S,Oshkosh,Wisconsin,54904-9575,United States,-88.59075354,44.07856457,9207448045,http://www.barebonesbrewery.us,Wisconsin,2026-02-22 21:29:36
87bfdb36-616c-455d-a2f8-a8dbd7408588,Barhop Brewing,brewpub,124 W Railroad Ave,Port Angeles,Washington,98362-2621,United States,-123.4332787,48.12098065,3604605155,http://www.barhopbrewing.com,Washington,2026-02-22 21:29:36
97af6f98-8ef7-4ad9-af77-6b5eaec076d2,Barhop Sequim,brewpub,845 Washington St,Sequim,Washington,98382-3521,United States,-123.12332549986,48.078925671614,3604774257,https://barhopbrewing.com/barhop-sequim,Washington,2026-02-22 21:29:36
de70c697-36e2-4f30-9c08-f15fbca43bc8,Bark Brewing Company,brewpub,3021 Spring Garden St,Greensboro,North Carolina,27403-1968,United States,-79.84360434,36.06201036,3368561406,http://barkbrewingcompany.com,North Carolina,2026-02-22 21:29:36
63e51e47-8ece-4348-bdbc-313f2d8be6e2,Barley and Hops Grill,brewpub,5473 Urbana Pike,Frederick,Maryland,21704-7275,United States,-77.3995969,39.38204685,3016685555,http://www.barleyandhops.net,Maryland,2026-02-22 21:29:36
3f876682-7dcf-4465-8880-63253506e3e4,Barley Brothers Brewery,brewpub,1425 McCulloch Blvd N,Lake Havasu City,Arizona,86403-6597,United States,-114.3206399,34.4770677,9285057837,http://www.barleybrothers.com,Arizona,2026-02-22 21:29:36
6267a2b4-289e-4720-8baf-6ab825f30380,Barley Creek Brewing Co,brewpub,1774 Sullivan Trl,Tannersville,Pennsylvania,18372-7893,United States,-75.32890575,41.05236395,5706299399,http://www.barleycreek.com,Pennsylvania,2026-02-22 21:29:36
ee28a49f-8069-428c-a379-c4121d710821,Barley Island Brewing Co,brewpub,639 E Conner St,Noblesville,Indiana,46060-2532,United States,,,3177705280,http://www.barleyisland.com,Indiana,2026-02-22 21:29:36
050945b3-143d-4c19-976d-be130c5b9628,Barley Johns Brewpub,brewpub,781 Old Highway 8 SW,New Brighton,Minnesota,55112-7735,United States,-93.1984831,45.0366982,6516364670,http://www.barleyjohns.com,Minnesota,2026-02-22 21:29:36
947934b7-b0e7-4eee-81cc-8efabbfe32f7,Barley Sprouts Brewery,brewpub,639 SE 223rd Ave,Gresham,Oregon,97030-2509,United States,-122.4339039,45.51805087,5037586464,http://www.capturedbyporches.com,Oregon,2026-02-22 21:29:36
ae4bf94d-1f03-4f12-a5c1-904c987f3987,Barley Station Brewpub,brewpub,20 Shuswap Street SE,Salmon Arm,British Columbia,V1E 4H7,Canada,-119.2847443,50.6996989,12508320999,http://www.barleystation.com/,British Columbia,2026-02-22 21:29:36
80683fda-c79f-4dc1-941a-a2b4165487fe,Barley's Brewing Company (Ale House No. 1),brewpub,467 N High St,Columbus,Ohio,43215-2007,United States,-83.0027669,39.9719408,6142282537,http://www.barleysbrewing.com,Ohio,2026-02-22 21:29:36
10b2fbe8-9fc3-46f8-aaa9-d61bc19dffa8,Barley's Casino and Brewing Co,brewpub,4500 E Sunset Rd Ste 30,Henderson,Nevada,89014-2253,United States,,,7024582739,http://www.wildfire.sclv.com/barleys,Nevada,2026-02-22 21:29:36
545b51b8-caf4-4c63-aea4-48910ddef4c7,Barn Brewers,brewpub,114 N Main St,Lawton,Michigan,49065-8634,United States,-85.84966443,42.16834814,2692990482,http://www.barnbrewersbrewery.com,Michigan,2026-02-22 21:29:36
976cb1b1-2e1d-4b63-b8cc-003104c9af21,Barn Town Brewing Co.,brewpub,9500 SE University Ave #1110,West Des Moines,Iowa,50266-1888,United States,-93.8385143,41.5996472,5159786767,,Iowa,2026-02-22 21:29:36
23ff0148-df41-45fd-9f11-feaf313ef149,Barnhouse Brewery,brewpub,43271 Spinks Ferry Rd,Leesburg,Virginia,20176-5629,United States,,,7036758480,http://www.barnhousebrewery.com,Virginia,2026-02-22 21:29:36
225795a5-5470-4864-99f9-6310f40bb4bb,Barrel 41 Brewing Co,brewpub,1132 S. Commercial St.,Neenah,Wisconsin,54956,United States,-88.4642861,44.16805,9205584021,https://www.barrel41.com/,Wisconsin,2026-02-22 21:29:36
26615b1f-85a5-425c-bfc9-3ed0422329db,Barrel Head Brewhouse,brewpub,1785 Fulton St,San Francisco,California,94117-1202,United States,-122.4461033,37.77576514,4154166989,http://www.barrelheadsf.com,California,2026-02-22 21:29:36
ace9df76-b786-4d17-9be9-33a009f48ba2,Barrels & Bottles Brewery,brewpub,600 12th St Ste 160,Golden,Colorado,80401-6145,United States,-105.2202098,39.7562107,7203283643,http://www.barrelsbottles.com,Colorado,2026-02-22 21:29:36
d92bd59c-e6ad-4311-90a0-ff2c7fa721ee,Barrington Brewery and Restaurant,brewpub,420 Stockbridge Rd Ste 4,Great Barrington,Massachusetts,01230-9512,United States,,,4135288282,http://www.barringtonbrewery.net,Massachusetts,2026-02-22 21:29:36
40c40840-a67e-42c5-9393-71c82bead0da,Barrington’s Craft Brewery,brewpub,Barrington's,Plettenberg Bay,Western Cape,6600,South Africa,23.3564,-34.0521,27440503767,https://barringtonsplett.co.za/,Western Cape,2026-02-22 21:29:36
ed597116-57e6-472c-8cd1-41d2915d6544,Barsideous Brewing Co,brewpub,644 S Main St,Lebanon,Oregon,97355-3337,United States,-122.9070824,44.5247777,5415701789,http://www.barsideousbrewing.com,Oregon,2026-02-22 21:29:36
481b46b4-5731-45cb-a1b9-f773c55b8372,Bartlett Hall,brewpub,242 Ofarrell St,San Francisco,California,94102-2119,United States,-122.4087293,37.78640638,4154334332,http://www.bartletthall.com,California,2026-02-22 21:29:36
49cb9e16-c55d-4ddc-90e6-789ca4da0992,Base Camp Provisions,brewpub,155 N. Mulberry St.,Fruita,Colorado,81521,United States,-108.732637,39.160152,9706392888,https://www.basecampfruita.com,Colorado,2026-02-22 21:29:36
1d7e5d18-1159-4ff0-ae9a-eb00af7d14cb,Basecamp Brewing,brewpub,25 S Mountain Rd,Lincoln,New Hampshire,03251-4268,United States,,,6037457290,http://www.onelovebrewery.com,New Hampshire,2026-02-22 21:29:36
4d515475-dfce-446d-bf21-62a12a4021c3,Basket Case Brewing Co,brewpub,1340 Mill St,Jasper,Indiana,47546-2310,United States,-86.92850063,38.39736355,8124824345,http://www.basketcasebeer.com,Indiana,2026-02-22 21:29:36
52f98458-5a40-43bc-88f7-f6dbc6b4cc95,Bastion Brewing Company,brewpub,12529 Christianson Rd,Anacortes,Washington,98221-8682,United States,-122.5708729,48.46080506,3603991614,http://www.bastionbrewingcompany.com,Washington,2026-02-22 21:29:36
e48f036b-e371-4e7e-b78f-08a976dc26db,Bastone Brewery,brewpub,419 S Main St,Royal Oak,Michigan,48067-2615,United States,-83.1440578,42.4836283,2485446250,http://www.bastone.net/br/bastone-brewery,Michigan,2026-02-22 21:29:36
e9ce69e2-13cf-48bd-81e2-10235db692aa,Batch Brewing Co,brewpub,1400 Porter St,Detroit,Michigan,48216-1934,United States,-83.088689,42.3184806,3133388008,http://www.BatchBrewingCompany.com,Michigan,2026-02-22 21:29:36
b9371de8-5c61-41c2-b2dd-9d4f5fd6eae7,Bath Brewing Company,brewpub,141 Front St,Bath,Maine,04530,United States,-69.81414593,43.91408541,2075603389,http://www.bathbrewing.com,Maine,2026-02-22 21:29:36
247f6183-0e55-4613-bd72-06d88eee5fed,Battle Mountain Brewing Co,brewpub,330 Third St,Castle Rock,Colorado,80104,United States,-104.859545,39.3721413,7202871961,https://www.battlemountaincr.com,Colorado,2026-02-22 21:29:36
b5857838-ef52-47ed-b4e4-849a321374eb,Battlefield Brew Works,brewpub,248 Hunterstown Rd,Gettysburg,Pennsylvania,17325-7840,United States,,,7173982907,http://www.battlefieldbrewworks.com,Pennsylvania,2026-02-22 21:29:36
aa5a338a-a6ac-46d1-9fb1-d376df65e0bb,Battlefield Brewing Co,brewpub,4187 Plank Rd,Fredericksburg,Virginia,22407-4896,United States,,,5407852164,,Virginia,2026-02-22 21:29:36
e5b27570-2203-47b4-b92a-92e8eb46a4f8,Bavarian Bierhaus,brewpub,700 W Lexington Blvd,Glendale,Wisconsin,53217-4912,United States,-87.91923009,43.11415845,4142367000,http://www.thebavarianbierhaus.com,Wisconsin,2026-02-22 21:29:36
f5d36db3-999a-49b8-84e0-7416f86bd23a,Bavarian Brothers Brewing,brewpub,164 Shepherd Grade Rd,Shepherdstown,West Virginia,25443-4601,United States,-77.804886,39.436699,3048762551,,West Virginia,2026-02-22 21:29:36
b6a77bad-f595-40f7-9741-ed4c63d804e1,BBGB Brewery And Hop Farm,brewpub,2000 Orchard Rd,North Aurora,Illinois,60542-1674,United States,,,8479093072,http://www.eathardware.com/,Illinois,2026-02-22 21:29:36
0585bea4-0b4b-4933-9770-df4c124618c7,Beach Chalet Brewing Co,brewpub,1000 Great Hwy,San Francisco,California,94121-3268,United States,-122.502981,37.7252994,4153868439,http://www.beachchalet.com,California,2026-02-22 21:29:36
dfefae25-ded6-4109-b6ed-e494a393dc07,Beachwood BBQ & Brewing,brewpub,210 E 3rd St Ste A,Long Beach,California,90802-3197,United States,-118.1909007,33.77017138,5624364020,http://www.beachwoodbbq.com,California,2026-02-22 21:29:36
797a05a9-52b7-4d53-b0fe-f89237eaffc5,Beale's,brewpub,510 Grove St,Bedford,Virginia,24523,United States,-79.51785,37.33585,,http://www.bealesbeer.com,Virginia,2026-02-22 21:29:36
9d17cc50-aa5b-41a1-9aa7-2ae4dd82e743,Bear Republic Brewing Co Pub & Restaurant - Lakeside,brewpub,5000 Roberts Lake Rd,Rohnert Park,California,94928,United States,-122.7101405,38.3649703,7075852722,http://bearrepublic.com,California,2026-02-22 21:29:36
6bece4ab-f1f5-487e-a326-150ee9487d0b,Bearded Owl Brewing,brewpub,112 State St Ste 1A,Peoria,Illinois,61602-5121,United States,,,3093601980,,Illinois,2026-02-22 21:29:36
b4e2e758-52bb-4745-b36a-6732aae2a4c2,Beards Brewery,brewpub,215 E Lake St,Petoskey,Michigan,49770-2415,United States,-84.95425838,45.37533801,2317532221,http://www.beardsbrewery.com,Michigan,2026-02-22 21:29:36
9ba20e75-2968-42ad-b08d-8241c134deeb,Beardslee Public House,brewpub,19116 Beardslee Blvd Ste 201,Bothell,Washington,98011-0202,United States,-122.1914046,47.7663209,4252861001,https://beardsleeph.com,Washington,2026-02-22 21:29:36
a2a4f05a-7e2d-4b7c-a22f-45f90db7d334,BearWaters Brewing Co,brewpub,101 Park St,Canton,North Carolina,28716-4319,United States,-82.843001,35.53137,8282734200,http://www.bwbrewing.com,North Carolina,2026-02-22 21:29:36
571e446c-b17d-40ba-98b1-a60daa9bb961,Beaver Brewery At Mo's Place,brewpub,1908 Elm St,Beaver,Kansas,67525-9231,United States,-98.667933,38.639049,6205872350,http://www.mosbrewpub.com,Kansas,2026-02-22 21:29:36
c0b53d0f-5c81-435b-920d-a193e02e1b73,Beaver Brewing Co,brewpub,1820 7th Ave,Beaver Falls,Pennsylvania,15010-4001,United States,-80.3192793,40.7650557,,http://www.beaverbrewingcompany.com,Pennsylvania,2026-02-22 21:29:36
92089237-a5bc-40cc-b7c8-b666f1db822a,Beaver Street Brewery,brewpub,11 S Beaver St Ste 1,Flagstaff,Arizona,86001-5500,United States,,,9287790079,http://www.beaverstreetbrewery.com,Arizona,2026-02-22 21:29:36
047d4126-a132-4123-8e9a-aba351f31031,Bedlam Brewing LLC,brewpub,2303 N Augusta St,Staunton,Virginia,24401-2597,United States,-79.05582568,38.16800319,5402211305,http://www.facebook.com/Bedlam-Brewing-536957559822021,Virginia,2026-02-22 21:29:36
53d076da-4ee2-491f-9513-f2bee77c3688,Bee's Knees Ale House,brewpub,106 W Jasper St,Versailles,Missouri,65084,United States,-92.835774,38.479374,5735392525,,Missouri,2026-02-22 21:29:36
98b4c7f1-cdf7-465b-a41c-ab456bfd6a61,Beer Army,brewpub,,New Bern,North Carolina,28564-3051,United States,,,2522885814,,North Carolina,2026-02-22 21:29:36
cd6359e5-3449-49a1-aa3d-23e0bfc8b2d8,Beer Lab HI - Pearlridge,brewpub,98-1005 Moanalua Rd #884,Aiea,Hawaii,96701-4700,United States,-157.93993050588,21.383085776812,8087620027,https://www.beerlabhi.com/pearlridge,Hawaii,2026-02-22 21:29:36
8b27739b-7bf1-4e11-ae31-920941115b64,Beer Lab HI - Puck's Alley,brewpub,2600 S King St #107,Honolulu,Hawaii,96826-3266,United States,-157.82140526171,21.292193299947,8087440253,https://www.beerlabhi.com/pucks,Hawaii,2026-02-22 21:29:36
bb4ba62d-f718-46d1-929b-3a8b4e96b80c,Beer Me Brewery,brewpub,Grand Parade,Eastbourne,East Sussex,BN21 3YN,England,0.291598,50.767006,1323729967,https://beermebrewery.co.uk/,East Sussex,2026-02-22 21:29:36
3c2c022b-b5c3-438e-b7fc-67b76b715f86,Beer Naked Brewery,brewpub,7678 VT-RTE 9,Marlboro,Vermont,05344,United States,,,8024647702,http://www.beernakedbrewery.com,Vermont,2026-02-22 21:29:36
2d71ef89-cdf4-4e5a-b862-14aca5e47c93,"Beer Research Institute, The",brewpub,1641 S Stateley Dr Ste 104,Mesa,Arizona,85204,United States,,,4808922020,http://www.bri.beer,Arizona,2026-02-22 21:29:36
3e53001e-282d-4c9e-970e-0dfc10173651,Beer stand MARCA,brewpub,1-1-14 Sangenyanishi,Osaka,Osaka,551-0001,Japan,135.4799445,34.66768998,818021106099,https://beermarca.jp/,Osaka,2026-02-22 21:29:36
a349e5e8-16d6-47e1-8c62-4403a2709927,Belching Beaver Brewery Tavern & Grill,brewpub,302 E Broadway,Vista,California,92084-6020,United States,-117.241029,33.2021182,7605995832,,California,2026-02-22 21:29:36
ddb10d3b-41f8-4a89-a91a-5e751230f8ec,Bell's Eccentric Cafe,brewpub,355 E Kalamazoo Ave,Kalamazoo,Michigan,49007-3807,United States,-85.57887292,42.29491555,2693822332,http://www.bellsbeer.com,Michigan,2026-02-22 21:29:36
767cf890-0184-4c32-afd8-0260ce1a0f0b,Bella Casa Di Vino,brewpub,201 N Riverside Ave,Saint Clair,Michigan,48079-5491,United States,-82.48591,42.823895,8103261212,http://www.suescoffeehouse.com,Michigan,2026-02-22 21:29:36
5ce26e95-3deb-4b79-be7d-3d7962abc3f3,Belle Isle Restaurant and Brewing Co,brewpub,1900 NW Expressway Ste 44,Oklahoma City,Oklahoma,73118-1832,United States,-97.545912,35.522258,4058401911,http://www.belleislerestaurant.com,Oklahoma,2026-02-22 21:29:36
098131e3-d4fb-4b66-b969-525867ea43e8,Bellevue Brewing Spring District Brewpub,brewpub,12190 NE District Way,Bellevue,Washington,98005,United States,-122.1777366164,47.621516191743,4254978686,http://www.bellevuebrewing.com,Washington,2026-02-22 21:29:36
3a6fa1f2-5baa-48b0-ab62-17580ee59c80,Belly Love Brewing Company,brewpub,725 E Main St,Purcellville,Virginia,20132-3178,United States,-77.7015903,39.1364247,5404413159,http://www.bellylovebrewing.com,Virginia,2026-02-22 21:29:36
b5c1920a-6015-4f9e-9ba6-58e654fe2138,Belmont Brewing Co,brewpub,25 39th Pl,Long Beach,California,90803-2806,United States,-118.1480454,33.759551,5624333891,http://www.belmontbrewing.com,California,2026-02-22 21:29:36
e99c9fda-b861-4dc4-99bb-58b685654f4f,Bemidji Brewing Company,brewpub,211 America Ave NW,Bemidji,Minnesota,56601-3176,United States,-94.88482747,47.4699022,2184447011,http://www.bemidjibeer.com,Minnesota,2026-02-22 21:29:36
db8a8a89-3084-4632-8215-36c9446426b5,Ben's Tune-Up / Ben's Beer,brewpub,195 Hilliard Ave,Asheville,North Carolina,28801-3616,United States,-82.5557931,35.5912756,8284247580,http://www.benstuneup.com,North Carolina,2026-02-22 21:29:36
66d441d7-df24-4f32-83be-9a80d9d63951,Bend Brewing Co,brewpub,1019 NW Brooks St,Bend,Oregon,97703-2018,United States,-121.3139312,44.06051115,5413831599,http://www.bendbrewingco.com,Oregon,2026-02-22 21:29:36
74266e58-c60c-4eed-bb2a-e582ac87c18c,Bennidito's Brewpub,brewpub,1909 E Sprague Ave,Spokane,Washington,99202-3120,United States,-117.2178526,47.6571208,5092905018,http://www.benniditosbrewpub.com,Washington,2026-02-22 21:29:36
c74f06ec-3978-451b-88b4-92d813b11903,Benson Brewery,brewpub,6059 Maple St,Omaha,Nebraska,68104-4050,United States,-96.00634511,41.28489756,4029348668,http://www.bensonbrewery.com,Nebraska,2026-02-22 21:29:36
d246dbd2-5991-48f5-9e47-3bca8b6027f0,Bent Bine Brew Co. LLC,brewpub,23297 WA-3,Belfair,Washington,98394,United States,-122.83223,47.445115,8142739379,http://www.bentbine.com,Washington,2026-02-22 21:29:36
5e6cbfb1-f958-47d5-9a19-d8a639216888,Bent River Brewing Co,brewpub,500 Jefferson St,Burlington,Iowa,52601,United States,-91.1052085,40.8106128,3192092773,http://www.burlingtonbentriver.com,Iowa,2026-02-22 21:29:36
457f03ac-e315-4d9a-9a66-f091e90698da,Bent River Brewing Co,brewpub,1413 5th Ave,Moline,Illinois,61265-1335,United States,-90.51736337,41.50590516,3097972722,http://www.bentriverbrewing.com,Illinois,2026-02-22 21:29:36
eeabc125-dc98-49cf-a9da-969ee820c348,Bent Run Brewing Co,brewpub,5607 SR 957,Lander,Pennsylvania,16345,United States,,,8147578269,http://www.bentrunbrewing.com,Pennsylvania,2026-02-22 21:29:36
4b7fc8c9-464c-449f-9c6a-1ef990870184,Berg River Brewery,brewpub,34-36,Paarl,Western Cape,7646,South Africa,18.9781,-33.7214,27218721308,https://www.bergriverbrewery.co.za/,Western Cape,2026-02-22 21:29:36
dcf991c9-6692-4346-a52a-b6e9ff25520e,Berkeley Springs Brewing Co,brewpub,110 Michigan Ln,Berkeley Springs,West Virginia,25411-3008,United States,-78.271156,39.576782,3042583369,http://www.berkeleyspringsbrewingcompany.com,West Virginia,2026-02-22 21:29:36
c495b454-6bbb-4f13-adb9-05d88e03136a,Bertrams Salmon Valley Brewery,brewpub,535 Main St,Salmon,Idaho,83467-4246,United States,-113.8932079,45.1751978,2087563391,http://salmonvalleybrewery.com,Idaho,2026-02-22 21:29:36
8b33dd81-0c75-4be9-90c0-72d5ed79f436,Berwick Brewing Co,brewpub,328 W Front St,Berwick,Pennsylvania,18603-4757,United States,-76.2381632,41.05243327,5707524313,http://www.berwickbrewing.com,Pennsylvania,2026-02-22 21:29:36
b635b07f-9dba-4619-ac00-f17ca8313c43,Bespoke Brewing Company,brewpub,242 Gap Rd,Ronks,Pennsylvania,17572,United States,,,7172882255,https://www.bespokebrewingco.com,Pennsylvania,2026-02-22 21:29:36
957afb07-a6ff-4ba3-9288-820bf0e7b107,Bewilder Brewing Co,brewpub,445 S 400 W,Salt Lake City,Utah,84101-2202,United States,-111.9017072,40.7594039,3855283840,https://bewilderbrewing.com,Utah,2026-02-22 21:29:36
c6f9f271-cdbd-4342-b2dd-8399a3cd6670,Bier One Brewing,brewpub,424 SW Coast Hwy,Newport,Oregon,97365-4930,United States,-124.0572864,44.6330765,5412654630,http://www.bier-one.com,Oregon,2026-02-22 21:29:36
4af8972b-a42f-43c7-a871-c28ba96f378a,Biercamp,brewpub,1643 S State St,Ann Arbor,Michigan,48104-4302,United States,-83.740111,42.2586786,7349952437,http://www.bier-camp.com,Michigan,2026-02-22 21:29:36
a7ea14a8-dc7d-4cd5-8314-7632451807fe,Bierly Brewing @ Eats and Treats,brewpub,1644 Main St,Philomath,Oregon,97370-9237,United States,-123.3625416,44.539936,5412575126,,Oregon,2026-02-22 21:29:36
c3d41248-80ed-4c14-8078-c100308e5450,Bierstadt Lagerhaus,brewpub,2875 Blake St,Denver,Colorado,80205-2210,United States,-104.9838084,39.7630094,7205707824,http://www.bierstadtlager.com,Colorado,2026-02-22 21:29:36
58bbeef3-65a9-4cdf-b2f3-0acb2c53f1f8,BierWerks,brewpub,121 E. Midland Ave,Woodland Park,Colorado,80863,United States,-105.0519462,38.9941414,7196868100,http://www.bierwerks.com,Colorado,2026-02-22 21:29:36
03fe4348-0e01-446b-81af-dda8167284e8,Big Axe Brewing Company,brewpub,25435 Main St,Nisswa,Minnesota,56468-5001,United States,-94.2891095,46.5199477,2189612337,http://www.bigaxebrewing.com,Minnesota,2026-02-22 21:29:36
1a67833a-71e7-482e-9f85-9726583aceb7,Big Bear Brewing Co,brewpub,1800 N University Dr,Coral Springs,Florida,33071-6031,United States,-80.2505088,26.2992083,9543415545,http://www.bigbearbrewingco.com,Florida,2026-02-22 21:29:36
6ce0f40e-a10e-4dde-82a6-c51662b2fe09,Big Bear Lake Brewing Co,brewpub,40827 Stone Rd,Big Bear Lake,California,92315,United States,-116.9110287,34.2425583,9098780283,http://www.bblbc.com,California,2026-02-22 21:29:36
08d14e79-430e-448f-a264-7bc200af83d5,Big Bear Mountain Brewery,brewpub,40260 Big Bear Blvd,Big Bear Lake,California,92315,United States,-116.923042,34.23876062,9098662337,http://www.mountainbrewery.com,California,2026-02-22 21:29:36
b9f816db-8d71-4be2-9370-5100c2b1257a,Big Blue Brewing,brewpub,4721 SE 10th Pl,Cape Coral,Florida,33904-9168,United States,-81.95242639,26.56445895,9737693294,http://www.bigbluebrewing.com,Florida,2026-02-22 21:29:36
5071d551-c086-4480-a57f-d2dbfcd7fbcc,Big Boiler Brewing,brewpub,318 E Main St,Lowell,Michigan,49331-1714,United States,-85.33655351,42.93462931,6169873155,http://bigboilerbrewing.com,Michigan,2026-02-22 21:29:36
b203b9a5-a84a-461f-a64a-938adf44a7d4,Big Cat Brewing Company,brewpub,8699 S Good Harbor Trl,Cedar,Michigan,49621-8580,United States,-85.79311511,44.85319287,2312282282,http://www.bigcatbrewingco.com,Michigan,2026-02-22 21:29:36
2c048f27-d9fc-4117-ae9a-c3c79ea2470e,Big Dog's Brewing Co,brewpub,4547 N Rancho Dr Ste A,Las Vegas,Nevada,89130-3432,United States,,,7023683715,http://www.bigdogsbrews.com,Nevada,2026-02-22 21:29:36
7541c361-f556-481e-905f-172dab289cce,Big Grove Brewery & Tap Room,brewpub,1225 S Gilbert St,Iowa City,Iowa,52240-4507,United States,-91.53189828,41.64713299,3196242337,,Iowa,2026-02-22 21:29:36
f59742d0-8848-414d-a1e1-59b428315374,Big Hart Brewing Company,brewpub,4086 W Polk Rd,Hart,Michigan,49420-8172,United States,,,2313018226,http://www.bighartbrewing.com,Michigan,2026-02-22 21:29:36
f5a551d7-6af0-418e-bec2-0f16044bb3f2,Big Horse Brewpub,brewpub,115 State St,Hood River,Oregon,97031-2315,United States,-121.5120956,45.7079528,5413864411,http://www.bighorsebrewpub.com,Oregon,2026-02-22 21:29:36
f8f6a528-f887-48dd-a161-1ad325233a3e,Big House Brew Pub,brewpub,11 S Palouse St,Walla Walla,Washington,99362-1925,United States,-118.334839,46.06937,5095222440,https://www.bighousebrewpub.com,Washington,2026-02-22 21:29:36
d2699492-6d8c-492d-a52d-e71342e717ca,Big Island Brewhaus,brewpub,64-1066 Mamalahoa Hwy Unit 5,Kamuela,Hawaii,96743-7309,United States,-155.661471,20.025552,8088871717,http://www.bigislandbrewhaus.com,Hawaii,2026-02-22 21:29:36
f00adb8d-12dc-45ef-852e-57d10d79f7ff,Big Lug Canteen,brewpub,1435 E 86th St,Indianapolis,Indiana,46240-1911,United States,-86.079957,39.912628,,,Indiana,2026-02-22 21:29:36
077585a3-1bbb-46fa-90ac-6494765afc75,Big River Grille & Brewing Works - Disney,brewpub,2101 Epcot Resorts Blvd,Lake Buena Vista,Florida,32830-8442,United States,,,4075600253,http://www.craftworksrestaurants.com,Florida,2026-02-22 21:29:36
d5e9205f-ff1f-4cd2-9eec-2844197449f1,Big Slide Brewery,brewpub,5686 Cascade Road,Lake Placid,New York,12946,United States,-73.96977615,44.26461237,5185237844,http://www.bigslidebrewery.com,New York,2026-02-22 21:29:36
dc1b146d-741e-426b-8216-a65911e0f76a,Big Texan Brewery,brewpub,7701 Interstate 40 Access Rd,Amarillo,Texas,79118-6915,United States,,,8063726000,http://www.bigtexan.com,Texas,2026-02-22 21:29:36
a1964010-0e7c-4bd0-9da1-1aef938faf44,Big Time Brewery,brewpub,4133 University Way NE,Seattle,Washington,98105-6213,United States,-122.3135759,47.65785225,2065454509,http://www.bigtimebrewery.com,Washington,2026-02-22 21:29:36
00eddf9c-e274-4d9a-8957-457e3ea570ac,Big Tupper Brewing,brewpub,12 Cliff Ave,Tupper Lake,New York,12986-1719,United States,-74.46576367,44.223293,5183596350,http://www.bigtupperbrewing.com,New York,2026-02-22 21:29:36
5a56a77e-507d-4fb8-b62d-31c48240d512,Big Woods Brewery,brewpub,2222 4th Street,White Bear Lake,Minnesota,55110,United States,-93.007108,45.08530367,8139886000,http://www.bigwoodsbeer.com,Minnesota,2026-02-22 21:29:36
810dda02-89b0-44a0-a287-228109259314,Big's BBQ Brewpub,brewpub,124 2nd Ave NW,Mount Vernon,Iowa,52314,United States,-91.41772002,41.92299939,3195351060,http://www.bigsbbqmv.com,Iowa,2026-02-22 21:29:36
f62eed3c-818b-49a8-9aca-20ebe1793f23,Bigelow Brewing Company,brewpub,473 Bigelow Hill Rd,Skowhegan,Maine,04976-5126,United States,-69.72961613,44.71991967,2073996262,http://www.bigelowbrewing.com,Maine,2026-02-22 21:29:36
5e549a83-df46-462c-aa98-3bd6dd0e65fd,Bilbo's Pizza and Brewery,brewpub,3307 Stadium Dr,Kalamazoo,Michigan,49008-1528,United States,-85.63122494,42.27160225,2693825544,http://www.bilbospizza.com,Michigan,2026-02-22 21:29:36
2e6d6446-a752-4ed5-85dc-164d7bb799ba,Bill's Brewing Co.,brewpub,4238 Market St.,Wilmington,North Carolina,28403,United States,-77.892361,34.242224,9107626333,http://www.billsfrontporch.com,North Carolina,2026-02-22 21:29:36
76f46964-b68a-4156-8a61-dbd2e6acaacf,Bill's Front Porch Pub and Brewery,brewpub,4238 Market St,Wilmington,North Carolina,28403-1409,United States,-77.892361,34.242224,9107626333,http://www.billsfrontporch.com,North Carolina,2026-02-22 21:29:36
47a98559-734f-4475-ad82-f8bad6a69bf1,Bill's Tavern and Brewhouse,brewpub,188 N Hemlock St,Cannon Beach,Oregon,97110-3037,United States,-123.9610943,45.89803615,5034362202,http://www.billstavernandbrewhouse.com,Oregon,2026-02-22 21:29:36
ffd991bf-fb26-470c-9167-77d54c1fd57b,Birch's On the Lake,brewpub,1310 Wayzata Blvd,Long Lake,Minnesota,55356-8314,United States,-93.55601814,44.98493915,9524737373,http://www.birchsrestaurantandbar.com,Minnesota,2026-02-22 21:29:36
91c3a9b6-22f3-42cc-814d-d9895dadb1af,Birkenhead Brewery,brewpub,R326,Stanford,Western Cape,7210,South Africa,19.4682,-34.4265,27283410183,https://www.birkenhead.co.za/,Western Cape,2026-02-22 21:29:36
ceabe2ed-e384-453c-a972-245ff8abc850,Birravino,brewpub,183 Riverside Ave,Red Bank,New Jersey,07701-1015,United States,-74.07536238,40.35352565,7328425990,http://www.birravino.com,New Jersey,2026-02-22 21:29:36
aec527a2-0534-4252-86e0-56c621fc835d,Birreria @ Eataly,brewpub,200 5th Ave Fl 14,New York,New York,10010-3302,United States,,,2125390204,http://www.eatalyny.com,New York,2026-02-22 21:29:36
66cb7863-0a8f-49e0-96e5-d29ed5b69e86,Birreria @ Eataly,brewpub,43 E Ohio St,Chicago,Illinois,60611-2701,United States,-87.6262332,41.89209845,,http://www.eataly.com,Illinois,2026-02-22 21:29:36
27c38f61-cc1b-4e9c-baea-a55193ba486b,Birthright Brewing Co.,brewpub,57 S Main St,Nazareth,Pennsylvania,18064-2037,United States,-75.31224579,40.74211365,6103652225,http://www.birthrightbrewingco.com,Pennsylvania,2026-02-22 21:29:36
105076f0-ca29-4fb5-8c91-73e1d7dbfb9d,Bismarck Brewing,brewpub,1100 Canada Ave Suite 1,Bismarck,North Dakota,58503-1814,United States,-100.7737552,46.86270313,,http://www.bismarckbrew.com,North Dakota,2026-02-22 21:29:36
77c019ef-bc30-40e4-aa2b-5c51ffa38453,Bistronomy B2B Craft Brewery,brewpub,3118 Central Ave SE,Albuquerque,New Mexico,87106-2216,United States,-106.6102147,35.080354,5052622222,http://www.bistronomyb2b.com,New Mexico,2026-02-22 21:29:36
57b4c49f-7c62-4f88-8027-deeb7aa29a99,BJs Restaurant & Brewery - Boulder,brewpub,1690 28th St,Boulder,Colorado,80301-,United States,-105.258512,40.0291592,3034405200,http://www.bjsrestaurants.com,Colorado,2026-02-22 21:29:36
b550667b-11ec-49f0-8609-071ca0395269,BJs Restaurant & Brewery - Brea,brewpub,600 Brea Mall Dr,Brea,California,92821-5764,United States,-117.8863245,33.9152037,7149902095,http://www.bjsrestaurants.com,California,2026-02-22 21:29:36
a9888981-3b31-4cb8-80ec-83b4e089dc04,BJs Restaurant & Brewery - Chandler,brewpub,3155 W Chandler Blvd,Chandler,Arizona,85226-5175,United States,-111.911126,33.3053455,4809170631,http://www.bjsrestaurants.com,Arizona,2026-02-22 21:29:36
8fe53360-1c28-4c1a-8e98-49ff1966fc25,BJs Restaurant & Brewery - Reno,brewpub,13999 S Virginia St,Reno,Nevada,89511-8917,United States,-119.8122668,39.5244083,7758537575,http://www.bjsbrewhouse.com,Nevada,2026-02-22 21:29:36
d4b77aea-a845-46b2-8f6e-b81378525c89,BJs Restaurant & Brewery - West Covina,brewpub,2917 E Eastland Ctr Dr,West Covina,California,91791-1603,United States,-117.8867988,34.07298952,6268580054,http://www.bjsrestaurants.com,California,2026-02-22 21:29:36
283ac187-d4fb-4859-b536-3a4566d9631a,BJs Restauraunt & Brewhouse,brewpub,4502 S. Steele St. Suite 1500,Tacoma,Washington,98409-7277,United States,-122.467515,47.214875,2534721220,https://www.bjsrestaurants.com/locations/wa/tacoma,Washington,2026-02-22 21:29:36
e018afc5-b867-44d2-b3e6-9f54e66bc5c8,BlÃ¼ Dragonfly Brewing,brewpub,301 E 9th St # C,Cimarron,New Mexico,87714-4027,United States,-104.914428,36.511427,9186361095,,New Mexico,2026-02-22 21:29:36
64fd68cb-1304-41c8-b42d-0b5e801e7156,Black Acre Brewing Co,brewpub,5632 E Washington St,Indianapolis,Indiana,46219-6428,United States,-86.1452662,39.7668669,3177973316,http://www.blackacrebrewing.com,Indiana,2026-02-22 21:29:36
2d1c4b89-4d44-4f47-8ea1-b11fdfc247bd,Black Bottle Brewery,brewpub,1611 S College Ave Ste STE1609,Fort Collins,Colorado,80525-1074,United States,,,9704932337,http://www.blackbottlebrewery.com,Colorado,2026-02-22 21:29:36
7f459973-0ae7-40d5-825c-a6eaa6f3843a,Black Cloister Brewing Co,brewpub,619 Monroe St,Toledo,Ohio,43604-1015,United States,-83.5399665,41.6499863,4192141500,http://www.blackcloister.com,Ohio,2026-02-22 21:29:36
a0fadb5a-1b4c-4e40-9782-27f06c10a52d,Black Forest Brew Haus,brewpub,2015 New Hwy,Farmingdale,New York,11735-1103,United States,-73.41443291,40.7550515,6313919500,http://www.blackforestbrewhaus.com,New York,2026-02-22 21:29:36
d3eba4df-b289-4ee6-ada9-da33ef0567aa,Black Forest Brewery,brewpub,301 W Main St,Ephrata,Pennsylvania,17522-1713,United States,-76.183579,40.181767,7174507217,http://www.blackforestbrewery.net,Pennsylvania,2026-02-22 21:29:36
c8160b2b-3e43-4db3-bbd8-32f07a0a0060,Black Forest Brewing Company,brewpub,11590 Black Forest Rd Ste 50,Colorado Springs,Colorado,80908-6000,United States,,,7193962011,http://www.blackforestbrewco.com,Colorado,2026-02-22 21:29:36
e81bfb16-7efb-4b1f-bad8-9d0eeabc3157,Black Gold Brewing Co,brewpub,508 Center St,Taft,California,93268-3109,United States,-119.4591658,35.14109718,6617656550,,California,2026-02-22 21:29:36
59fe77ea-4972-44e7-b89c-031262ea5cab,Black Horse Brewery,brewpub,32 Seekoeihoek,Magaliesburg,Gauteng,1791,South Africa,27.6719,-25.9961,27824535295,https://www.blackhorse.co.za/,Gauteng,2026-02-22 21:29:36
a0603777-7481-46fd-805e-a00d194829d5,Black Lotus Brewing Co,brewpub,1 E 14 Mile Rd,Clawson,Michigan,48017-2132,United States,-83.141428,42.533563,2485771878,http://WWW.BLACKLOTUSBEER.COM,Michigan,2026-02-22 21:29:36
600748ca-dca4-43c4-8187-a0b1d952a597,Black Market Brewing Co,brewpub,41740 Enterprise Cir N Ste 109,Temecula,California,92590-5652,United States,-117.1697859,33.5185138,,,California,2026-02-22 21:29:36
5b5235aa-79f1-41e4-97a1-8f9fdfee1657,Black Shirt Brewing Co,brewpub,3719 Walnut St,Denver,Colorado,80205-2436,United States,-104.9729604,39.7698142,3039932799,http://www.blackshirtbrewingco.com,Colorado,2026-02-22 21:29:36
15855eaa-dfcc-43e4-a0ff-220836e5be63,Black Sky Brewery,brewpub,490 Santa Fe Dr,Denver,Colorado,80204-5024,United States,-104.9983183,39.7239431,9702154536,http://www.blackskybrewing.com,Colorado,2026-02-22 21:29:36
3a255fa1-c05a-42ce-ad91-181fbe91473d,Black Star Co-op,brewpub,7020 Easy Wind Dr Ste 100,Austin,Texas,78752-2373,United States,-97.718977,30.3383262,5124522337,http://www.blackstar.coop,Texas,2026-02-22 21:29:36
7cb5d5cc-c608-46a0-8bde-20c063f1bd1d,Black Swan Brewpub,brewpub,2067 E Hadley Rd,Plainfield,Indiana,46168-7484,United States,-86.374141,39.674729,3178387444,http://www.blackswanbrewpub.com,Indiana,2026-02-22 21:29:36
df62d3a5-46ff-40e3-9f81-e35c286a4a94,Blackbeard's Brewing Company,brewpub,700 W Ocean Ave,Westport,Washington,98595-9603,United States,-124.1175413,46.8867861,3602687662,http://www.blackbeardsbrewing.com,Washington,2026-02-22 21:29:36
847d8d94-eb0a-4bd3-8941-bbc92f0311ad,Blackhorse Pub and Brewery,brewpub,132 Franklin St,Clarksville,Tennessee,37040-3438,United States,-87.3588994,36.52735085,9315523726,http://www.blackhorsebrews.com,Tennessee,2026-02-22 21:29:36
908f6fa3-531d-4413-9134-09d24b652a5c,Blackhorse Pub and Brewery -  Knoxville,brewpub,4429 Kingston Pike,Knoxville,Tennessee,37919-5252,United States,-84.0443634,35.9259722,8652498511,http://www.theblackhorsepub.net,Tennessee,2026-02-22 21:29:36
cb8add44-ed44-445c-911b-14d6c5363fd0,Blackwater Draw Brewing Company,brewpub,701 N Main,Bryan,Texas,77803,United States,-96.35277742,30.6580876,9797046191,http://www.blackwaterbrew.com,Texas,2026-02-22 21:29:36
4ab37f9a-f9dc-4fba-8b59-581c8968c668,Blasted Barley Beer Company,brewpub,404 S Mill Ave Ste 101,Tempe,Arizona,85281-2879,United States,,,4809675887,http://www.blastedbarley.com,Arizona,2026-02-22 21:29:36
967e2ae2-4955-4372-94ca-88fb0db58df7,Bleeding Heart Brewery,brewpub,562 S Denali St,Palmer,Alaska,99645-6438,United States,-149.10973617301,61.601081676375,90774624210,https://bleedingheartbrewery.com,Alaska,2026-02-22 21:29:36
224f2344-53ec-4ef1-87f3-a9fa24f00931,Blewett Brewing Company,brewpub,911 Commercial St,Leavenworth,Washington,98826-1494,United States,-120.6599479,47.59518806,5098888809,http://www.blewettbrew.com,Washington,2026-02-22 21:29:36
c8613358-8e0b-4ac7-8859-46f1efc36fd1,Blind Owl Brewery,brewpub,5014 E 62nd St,Indianapolis,Indiana,46220-5228,United States,,,3179241000,http://www.blindowlbrewery.com,Indiana,2026-02-22 21:29:36
67836207-49ed-4d67-8dca-8f66acdcbb00,Blind Pig Brewery,brewpub,120 N Neil St,Champaign,Illinois,61820-4023,United States,-88.24341082,40.11714609,2173985133,http://www.blindpigbrewery.com,Illinois,2026-02-22 21:29:36
789c9614-dbbd-473e-a5d8-7c881dfa5e51,Blind Tiger Brewery & Restaurant,brewpub,417 SW 37th St,Topeka,Kansas,66611-2354,United States,-95.6846745,39.0002602,7852672739,http://www.blindtiger.com,Kansas,2026-02-22 21:29:36
83078530-df39-4a88-bbac-362f1253a43a,Block 15,brewpub,300 SW Jefferson Ave,Corvallis,Oregon,97333-4607,United States,-123.262222,44.5622701,5417582077,,Oregon,2026-02-22 21:29:36
df8022a7-1cbc-4e06-a5e5-c163fcfa3ce1,Block 15 Brewery & Tap Room,brewpub,3415 SW Deschutes St,Corvallis,Oregon,97333-9283,United States,-123.269049,44.5305284,5417522337,http://www.block15.com,Oregon,2026-02-22 21:29:36
7e39a579-8605-49a5-9988-a4d594650d1e,Block Brewing Company,brewpub,1140 S Michigan Ave,Howell,Michigan,48843-2669,United States,-83.931806,42.603858,,http://www.blockbrewingcompany.com,Michigan,2026-02-22 21:29:36
0b768b24-8163-4b21-a633-ef4dad76b501,Bloomington Brewing Co,brewpub,1795 E 10th St,Bloomington,Indiana,47407-6955,United States,-86.51136673,39.1720504,8123392256,,Indiana,2026-02-22 21:29:36
22ef447a-0379-4be5-ab93-72d95e4a778a,Blowing Rock Brewing Company,brewpub,152 Sunset Dr,Blowing Rock,North Carolina,28605-7205,United States,-81.677229,36.1327196,8284149600,http://www.blowingrockbrewing.com,North Carolina,2026-02-22 21:29:36
f5e7c55b-e9bc-40fd-9008-dcf443a88837,Blue Blood Brewing Company,brewpub,925 Robbers Cave Rd,Lincoln,Nebraska,68502-4200,United States,-96.70701376,40.77999602,4024772337,http://www.bluebloodbrewing.com,Nebraska,2026-02-22 21:29:36
956f2d40-477b-455a-bc21-b03779150cf0,Blue Canoe Brewery,brewpub,113 S Franklin St,Titusville,Pennsylvania,16354-1737,United States,-79.6733234,41.6230211,8147750077,,Pennsylvania,2026-02-22 21:29:36
2daa16bf-b6ef-40f1-b70a-b3590227c0b5,Blue Cat Brew Pub,brewpub,113 18th St,Rock Island,Illinois,61201-8708,United States,-90.5145797,41.51094347,3097888247,http://www.bluecatbrewpub.com,Illinois,2026-02-22 21:29:36
2595ff73-65f0-41ea-820c-3d7d35f453ca,"Blue Collar Brewery, Inc.",brewpub,40 Cottage St,Poughkeepsie,New York,12601-2015,United States,-73.91831,41.707234,8454542739,http://www.thebluecollarbrewery.com,New York,2026-02-22 21:29:36
bfcbf176-9040-445a-a70f-58d8ce0df722,Blue Corn Cafe,brewpub,4056 Cerrillos Rd Ste G,Santa Fe,New Mexico,87507-2605,United States,,,5059841800,http://www.bluecorncafe.com,New Mexico,2026-02-22 21:29:36
b0d6f266-fc2c-4902-ac56-8037f58608c3,Blue Cow Cafe/Big Rapids Brewing Co,brewpub,119 N Michigan Ave,Big Rapids,Michigan,49307-1401,United States,-85.48211793,43.69871439,2317960100,http://www.bluecowcafe.com,Michigan,2026-02-22 21:29:36
2e73516c-cb09-4946-a500-e6bc12149b97,Blue Ghost Brewing Company,brewpub,125 Underwood Rd,Fletcher,North Carolina,28732-,United States,-82.5305803,35.4368388,8283760159,http://www.blueghostbrewing.com,North Carolina,2026-02-22 21:29:36
ff28c999-2a8b-4f5e-be5c-61708b56d8c2,Blue Heron Brew Pub,brewpub,108 W 9th St,Marshfield,Wisconsin,54449-4111,United States,-90.18148902,44.65938079,7153891868,http://www.blueheronbrewpub.com,Wisconsin,2026-02-22 21:29:36
aef7a703-7954-41ed-9e29-c6d6bb8a23fe,Blue Line Brewery,brewpub,555 Lake Flower Ave,Saranac Lake,New York,12983-2465,United States,-74.11766659,44.31358605,5183548114,http://www.bluelinebrew.com,New York,2026-02-22 21:29:36
23799b52-1cb9-423e-abd5-35c913bf68e9,Blue Mountain Pizza and Brew Pub,brewpub,55 N Main St,Weaverville,North Carolina,28787-6634,United States,-82.55934457,35.70849553,8286588777,http://www.bluemountainpizza.com,North Carolina,2026-02-22 21:29:36
2305e910-7a97-4d2e-bc7d-573216936035,Blue Pike Cantina,brewpub,152 S Water St,Marine City,Michigan,48039-1687,United States,-82.49085669,42.71829576,8107654200,,Michigan,2026-02-22 21:29:36
05a8d9a8-670a-4e5d-86c3-fddd352cfe43,Blue Ridge Brewing Co/Foothills Brewing,brewpub,308 Trade St,Greer,South Carolina,29651-3432,United States,-82.2262648,34.9361559,8642324677,http://www.blueridgebrewing.com,South Carolina,2026-02-22 21:29:36
3b5c7026-2f62-4fc0-ad1b-71a62ed0989d,Blue Skye Brewery,brewpub,116 N Santa Fe Ave,Salina,Kansas,67401-2614,United States,-97.608998,38.84100296,7854521234,http://blueskyebrewery.com,Kansas,2026-02-22 21:29:36
b43d9155-7bdb-49af-b0b8-58bc87119cfe,Blue Spruce Brewing,brewpub,4151 E County Line Rd Unit G,Centennial,Colorado,80122-8113,United States,,,3037710590,http://www.bluesprucebrewing.com,Colorado,2026-02-22 21:29:36
20541e39-2e32-455d-9b2b-cb926fc11fa2,Blue Spruce Brewing Littleton,brewpub,10577 W Centennial Rd,Littleton,Colorado,80127-4233,United States,,,,http://www.bluesprucebrewing.com,Colorado,2026-02-22 21:29:36
549145aa-cde9-4d76-a282-7508eaee9b3c,Blue Star Brewing Co,brewpub,1414 S Alamo St # 105,San Antonio,Texas,78210-1117,United States,-98.49615307,29.40989569,2102125506,http://www.bluestarbrewing.com,Texas,2026-02-22 21:29:36
eeef44bf-a841-4f54-94d3-d9864b81785c,Blue Tractor Brewing Co,brewpub,207 E Washington St,Ann Arbor,Michigan,48104-2007,United States,-83.74704578,42.28052759,7342224095,,Michigan,2026-02-22 21:29:36
d30dffbe-c246-4137-9ab2-e15e68c44d4b,Bluebird Brasserie,brewpub,13730 Ventura Blvd,Sherman Oaks,California,91423,United States,-118.4365891,34.1489109,,http://www.bluebirdbrasserie.com,California,2026-02-22 21:29:36
769657dd-ea31-413f-a465-54e729967309,Bluegrass Brewing Co - Brewpub,brewpub,300 W Main St,Louisville,Kentucky,40202-2945,United States,-85.75508898,38.25620645,5028997070,http://www.bbcbrew.com,Kentucky,2026-02-22 21:29:36
2b6bb7e5-a528-4387-a970-0be422a7afcc,Bluejacket,brewpub,300 Tingey St SE,Washington,District of Columbia,20003-4625,United States,-77.0006981,38.8750965,2025244862,http://www.bluejacketdc.com,District of Columbia,2026-02-22 21:29:36
6e5e63f5-4465-4ea8-9dbf-b55213db2775,Bluestone Brewing Company,brewpub,18 Pitney St,Sayre,Pennsylvania,18840-2720,United States,-76.54508776,41.99222929,5707310222,http://www.bluestonebrewingcompany.com,Pennsylvania,2026-02-22 21:29:36
863ccdbc-4d91-4499-9e10-c6c175e54d6d,Boathouse Brewery LLC,brewpub,47 E Sheridan St,Ely,Minnesota,55731-1289,United States,-91.8656329,47.9034136,2183654301,http://www.frontiernet.net,Minnesota,2026-02-22 21:29:36
add8f33d-d999-4acd-a8cc-11cac7434700,Bobcat Brewery & Cafe,brewpub,5 Main St,Bristol,Vermont,05443-1317,United States,-73.07811204,44.13284975,8024533311,http://www.bobcatcafe.com,Vermont,2026-02-22 21:29:36
676ccc41-f722-484a-b4b8-c9b8713d6249,Bobtown Brewhouse & Grill,brewpub,220 W Main St,Roberts,Wisconsin,54023,United States,-92.55599,44.983639,7153381046,http://www.bobtownbrewhouse.com,Wisconsin,2026-02-22 21:29:36
bcaa1166-a27a-447f-b057-3bf43d21ed68,Bold Missy Brewery,brewpub,610 Anderson St,Charlotte,North Carolina,28205-1208,United States,-80.796429,35.24960852,9802994184,http://www.boldmissybrewery.com,North Carolina,2026-02-22 21:29:36
8c4150d3-3edc-4b8d-bf03-0b89de7f4cf2,Bolt Brewery,brewpub,8179 Center St,La Mesa,California,91942-2907,United States,-117.02043,32.771889,6193037837,http://www.boltbrewery.com,California,2026-02-22 21:29:36
f5da109c-ab26-413e-9c86-51a3c6086e29,Bolton Beer Works,brewpub,100 Wattaquadock Hill Rd,Bolton,Massachusetts,01740-1238,United States,-71.619812,42.430173,9787795521,http://boltonbeerworks.com,Massachusetts,2026-02-22 21:29:36
ff3b3c00-18a2-4d67-ac98-ac289ef21ca1,Bombing Range Brewing Company,brewpub,2000 Logston Blvd Ste 126,Richland,Washington,99354-5330,United States,-119.2999357,46.3204119,5093923377,http://www.bombingrangebrewing.com,Washington,2026-02-22 21:29:36
b2c6e5d4-0637-44be-977b-ffb98569da4d,Bombs Away Beer Company,brewpub,9801 Acoma Rd SE,Albuquerque,New Mexico,87123-3301,United States,-106.53905,35.070904,5055543204,http://www.bombsawaybeer.com,New Mexico,2026-02-22 21:29:36
871b70be-e09e-4936-8b29-f92c0d2e2667,Bonaventure Brewing Co,brewpub,404 S Figueroa St Ste 418A,Los Angeles,California,90071-1797,United States,-118.2562113,34.05314634,2132360802,http://www.bonaventurebrewing.com,California,2026-02-22 21:29:36
c79f5c93-c9e1-4d12-a6a8-c3ac7510664a,Boneyard Beer Co,brewpub,1955 NE Division St,Bend,Oregon,97701,United States,-121.3065353,44.07094734,5413232325,http://www.boneyardbeer.com,Oregon,2026-02-22 21:29:36
800af4b4-2ba1-4fb1-9712-66d5d514912b,Bonsai Brewing Project,brewpub,549 Wisconsin Ave,Whitefish,Montana,59937-2127,United States,-114.3406189,48.4214453,4067301717,http://bonsaibrew.com,Montana,2026-02-22 21:29:36
dda9e364-55af-4b00-acd9-5d59cb82313b,Books & Brews,brewpub,9402 Uptown Dr Ste 1400,Indianapolis,Indiana,46256-1076,United States,,,3172885136,http://www.booksnbrews.com,Indiana,2026-02-22 21:29:36
32f78839-6d32-4162-bb75-8e4f714077bf,Boom City Brewing,brewpub,317 Pine St,Williamsport,Pennsylvania,17701-6509,United States,-77.00331232,41.24108564,2722022956,http://www.boomcitybrewing.com,Pennsylvania,2026-02-22 21:29:36
edfa72b9-a54d-44db-94fd-6714470fef11,BoomTown Brewery and Woodfire Grill,brewpub,531 E Howard St,Hibbing,Minnesota,55746-1713,United States,-92.9355964,47.4276931,2184401710,http://www.boomtownwoodfire.com,Minnesota,2026-02-22 21:29:36
01f95ff4-9f8a-4626-8b01-75efb27f8673,Boondocks Brewing,brewpub,302 S Jefferson Ave,West Jefferson,North Carolina,28694-,United States,-81.49133567,36.39941459,3362465222,http://www.boondocksbrew.com,North Carolina,2026-02-22 21:29:36
7dd5dd2e-62e8-427f-81a3-8ecfa17d63d6,Boot N Flute Brewery / Guild Wurst Tavern,brewpub,53 2nd St,Coralville,Iowa,52241,United States,-91.56271744,41.66788468,3193331740,http://www.guildwursttavern.com,Iowa,2026-02-22 21:29:36
31a00e99-284f-419b-a1e9-93cc47cec627,Bootleg Brewers - Sandhills Brewing Company,brewpub,45145 829th Rd,Taylor,Nebraska,68879-8120,United States,-99.4254083,41.8662836,3089423440,http://www.bootlegbrewers.com,Nebraska,2026-02-22 21:29:36
e6f749a5-aa78-46ae-9e84-c001986a9305,Booze Brothers Brewing Co.,brewpub,2545 Progress St,Vista,California,92081-8483,United States,-117.218025,33.148212,7602950217,http://www.boozebrothersbrewery.com,California,2026-02-22 21:29:36
e1a5d62a-19a5-4a73-9aa6-0e7ca2799868,Border Town Pub,brewpub,22 N Dixie Hwy # 28,Momence,Illinois,60954-1504,United States,-87.66261835,41.16238275,8154724340,http://www.BorderTownPub.com,Illinois,2026-02-22 21:29:36
e61f3a16-9521-40a6-9f86-3918b7081a6f,Border X Logan,brewpub,2181 Logan Ave,San Diego,California,92113-2203,United States,-117.1397541,32.6982174,8584050528,http://www.borderxbrewing.com,California,2026-02-22 21:29:36
58b42b92-8294-4785-9767-5c12009610fe,Boscos Squared,brewpub,2120 Madison Ave,Memphis,Tennessee,38104-6502,United States,-90.0401714,35.1417658,9014322222,http://www.boscosbeer.com,Tennessee,2026-02-22 21:29:36
d4dc69ab-cf58-44b9-9456-cea49cf6dd35,Boss Dog Brewing,brewpub,2179 Lee Rd,Cleveland,Ohio,44118-2907,United States,-81.56529555,41.50030645,2163212337,http://www.bossdogbrewing.com,Ohio,2026-02-22 21:29:36
22046ed7-ceb2-4ba5-a77d-5a158baa87bd,Bottom Shelf Brewery,brewpub,118 E Mill St,Bayfield,Colorado,81122,United States,-107.5990683,37.2251348,9708842442,http://www.bottomshelfbrewing.com,Colorado,2026-02-22 21:29:36
50c38066-568b-4e12-a4cb-536073d998c0,"Bottomless Brewing, LLC",brewpub,3543 E Lake Rd,Geneva,New York,14456-9261,United States,,,3153254380,http://www.bottomlessbrewing.com,New York,2026-02-22 21:29:36
d3e1adcf-6b5c-4cbc-95e7-c980ccb79742,Boulder Beer On Walnut,brewpub,1123 Walnut St,Boulder,Colorado,80302-5116,United States,-105.2804375,40.0168555,3034471345,,Colorado,2026-02-22 21:29:36
0afcc8c2-d95e-4ef3-9f55-009e01afeb4b,Boulder Dam Brewing Company,brewpub,453 Nevada Way,Boulder City,Nevada,89005-2424,United States,-114.836937,35.97842094,,,Nevada,2026-02-22 21:29:36
36c00147-3ca6-420f-b43d-08c69aaba4d5,Boundary Bay Brewery & Bistro,brewpub,1107 Railroad Ave,Bellingham,Washington,98225-5007,United States,-122.4809958,48.7475046,3606475593,http://www.bbaybrewery.com,Washington,2026-02-22 21:29:36
8ff02914-7639-412c-9165-dda506bdd61b,Boxing Bear Brewing Company,brewpub,10200 Corrales Rd NW,Albuquerque,New Mexico,87114-9268,United States,-106.6460549,35.2036804,5058972327,http://www.boxingbearbrewing.com,New Mexico,2026-02-22 21:29:36
280918cb-8713-4c5a-85c8-005a6b8d4d33,Boylan Bridge Brewpub,brewpub,201 S BOYLAN AVE,Raleigh,North Carolina,27603-1803,United States,-78.649139,35.778465,9198038927,http://www.boylanbridge.com,North Carolina,2026-02-22 21:29:36
8bf7e66c-cc29-473a-adf8-b63cf5cc3e69,Braindead Brewing,brewpub,2625 Main St,Dallas,Texas,75226-1411,United States,-96.7854202,32.7838067,4692869005,http://www.braindeadbrewing.com,Texas,2026-02-22 21:29:36
2de96915-c8c4-478d-ad67-0c8aa5828ab4,Brass Ring Brewery,brewpub,2404 Eastern Ave SE,Grand Rapids,Michigan,49507-3632,United States,-85.64741488,42.91987422,6164601587,http://www.brassringbrewing.com,Michigan,2026-02-22 21:29:36
27db60fa-fed9-40c9-9603-3c4fe5e2bfac,Brasserie Saint James,brewpub,901 S Center St,Reno,Nevada,89501-2307,United States,-119.8074531,39.51655075,7753488888,http://www.brasseriesaintjames.com,Nevada,2026-02-22 21:29:36
cf316d34-15c7-4e3c-a9d2-c76ee68a7d81,Bravo! Restaurant & Cafe,brewpub,5402 Portage Rd,Portage,Michigan,49002-1718,United States,-85.56023131,42.23892918,2693447700,http://www.bravokalamazoo.com,Michigan,2026-02-22 21:29:36
d5768396-cf5b-4a56-8481-294fd49b0b77,Breaker Brewing Company,brewpub,787 E Northampton St,Wilkes Barre,Pennsylvania,18702-7521,United States,-75.8739352,41.2338879,,,Pennsylvania,2026-02-22 21:29:36
45249b6e-b1d0-4c2f-a60e-ab483169287f,Breakside Brewery,brewpub,820 NE Dekum St,Portland,Oregon,97211-3630,United States,-122.657117,45.5716938,5037196475,http://www.breakside.com,Oregon,2026-02-22 21:29:36
63e51d1b-b184-4f69-ac2f-cdda3f09a232,Breakside Brewery Slabtown,brewpub,1570 NW 22nd Ave,Portland,Oregon,97210-2369,United States,-122.6966131,45.53384986,5034447597,http://breakside.com,Oregon,2026-02-22 21:29:36
be80fa99-6add-4bbd-87f8-650047882214,Breakwater Brewing Co,brewpub,101 N Coast Hwy Ste C140,Oceanside,California,92054-3015,United States,-117.3791093,33.19531474,7604336064,http://www.breakwaterbrewing.com,California,2026-02-22 21:29:36
c2259afb-c17e-4b35-9098-95861dabe01d,Breckenridge Brewery Ale & Game House,brewpub,200 Inverness Drive W Suite 100,Englewood,Colorado,80112,United States,-104.8667328,39.5706647,3033977801,https://www.breckbrewinverness.com/,Colorado,2026-02-22 21:29:36
3fe061f6-7b81-4969-acde-93f045661cd5,Bremer Brewing Company,brewpub,102 W Bremer Ave,Waverly,Iowa,50677-3318,United States,-92.4723192,42.7259202,3193522337,https://www.bremerbrewingcompany.com,Iowa,2026-02-22 21:29:36
da170deb-574e-4582-a365-b83058312b8b,Brew 32,brewpub,1474 State Route 208,Pulaski,Pennsylvania,16143-4308,United States,,,7242528464,http://Www.brew32craft.com,Pennsylvania,2026-02-22 21:29:36
c932db7a-8671-4052-ae9b-64ed0eb05e0b,Brew Angels LLC,brewpub,6821 Caroline St,Milton,Florida,32570-2206,United States,-87.038565,30.621944,8505640034,,Florida,2026-02-22 21:29:36
26baf7e9-4615-4874-84b7-4b718c84d5ea,Brew Bus Brewing,brewpub,4101 N Florida Ave,Tampa,Florida,33603-3817,United States,-82.4586495,27.9826232,8139907310,http://www.brewbususa.com,Florida,2026-02-22 21:29:36
f7977d73-f02d-4adb-b948-6080168f5545,Brew Hub Taproom,brewpub,5656 Oakland Avenue,Saint Louis,Missouri,63110,United States,-90.28300053,38.63049786,3148335453,http://www.tapbrewhub.com,Missouri,2026-02-22 21:29:36
ca1f9cfe-a140-49ae-a24a-443173fc662a,Brew Lab,brewpub,7925 Marty St,Overland Park,Kansas,66204-3727,United States,-94.66993927,38.98568748,9134002343,http://www.brewlabkc.com,Kansas,2026-02-22 21:29:36
28af5586-7124-43e6-b99c-c91bc63b90d3,Brew Pub and Kitchen,brewpub,117 W College Dr,Durango,Colorado,81301-5407,United States,-107.8831549,37.27036464,9702595959,http://www.brewpubkitchen.com,Colorado,2026-02-22 21:29:36
8ecb30eb-3537-4b11-8925-b63f09a0b3c9,Brew Republic Bierwerks,brewpub,15201 Potomac Town Pl Ste 120 Stonebridge @ Potomac Town Center,Woodbridge,Virginia,22191-6592,United States,,,7035947950,http://brewrepublic.beer,Virginia,2026-02-22 21:29:36
80792259-7b13-4e7c-a574-f044714302a4,Brew Works of Fremont,brewpub,5909 S Warner Ave,Fremont,Michigan,49412,United States,-85.94003325,43.44380716,2313355105,http://www.thecommonsoffremont.com,Michigan,2026-02-22 21:29:36
879d91a6-e62d-43e4-863f-680eb6675d5b,Brewbakers Brewing Co,brewpub,219 E Main St,Visalia,California,93291-6355,United States,-119.2906961,36.3300786,5596272739,http://www.brewbakersbrewingco.com,California,2026-02-22 21:29:36
b235bb6e-ff89-4860-923a-71c5ab5f183d,Brewdog Short North & Kennels,brewpub,1175 N High St,Columbus,Ohio,43201,United States,-83.00579,39.98637,6149083053,https://www.brewdog.com/,Ohio,2026-02-22 21:29:36
61c3bf4d-95e0-4afd-8d93-b2764ae5eba5,Brewer's Alley Restaurant and Brewery,brewpub,124 N Market St,Frederick,Maryland,21701-5422,United States,-77.41045515,39.41607325,3016310089,http://www.brewers-alley.com,Maryland,2026-02-22 21:29:36
a82d1b5a-b811-4252-97e4-af7887f2ffab,"Brewerie at Union Station, The",brewpub,123 W 14th St,Erie,Pennsylvania,16501-1717,United States,-80.0819415,42.1211965,8144542200,http://www.brewerie.com,Pennsylvania,2026-02-22 21:29:36
7d21464e-0574-44fb-901c-2481e843d8ec,Brewers Tasting Room,brewpub,11270 4th St N Ste 202,Saint Petersburg,Florida,33716-2937,United States,,,7278733900,http://www.brewerstastingroom.com,Florida,2026-02-22 21:29:36
01684e03-04b3-45e2-92f8-2c6e57d49b5a,Brewers Union Local 180,brewpub,48329 E 1st St,Oakridge,Oregon,97463-9700,United States,-122.4568787,43.7478831,5417822024,http://www.brewersunion.com,Oregon,2026-02-22 21:29:36
43f8e8d9-501d-4980-bf70-e34eae21afa2,Brewery At Abigaile,brewpub,1301 Manhattan Ave,Hermosa Beach,California,90254-3666,United States,-118.4048656,33.8734519,3107988227,http://www.abigailerestaurant.com,California,2026-02-22 21:29:36
0de9defa-ecfa-45b8-90e7-0857a6f28d41,Brewery At Lake Tahoe,brewpub,3542 Lake Tahoe Blvd,South Lake Tahoe,California,96150-8900,United States,-119.9619157,38.94679433,5305444369,http://www.brewerylaketahoe.com,California,2026-02-22 21:29:36
bf4a35aa-c5ec-4f50-a64d-42400b752212,Brewery At Simmzys Burbank,brewpub,3000 W Olive Ave,Burbank,California,91505-4537,United States,-118.3336262,34.1572656,8189622500,http://www.Simmzys.com,California,2026-02-22 21:29:36
14864393-a19e-42f2-81ef-bf28407a3571,Brewery At The Culinary Institute Of America,brewpub,1946 Campus Dr,Hyde Park,New York,12538,United States,-73.9331926,41.7459268,,,New York,2026-02-22 21:29:36
783c1657-bb0f-4718-87eb-676a8094d167,Brewery Becker,brewpub,500 W Main St,Brighton,Michigan,48116-1471,United States,-83.785481,42.529522,8108440225,http://www.brauereibecker.us,Michigan,2026-02-22 21:29:36
88977bac-d0ac-41b8-bcde-bfc17bb0d043,Brewery Emperial,brewpub,1829 Oak St,Kansas City,Missouri,64108,United States,-94.57886314,39.09119471,8169459625,http://www.breweryemperial.com,Missouri,2026-02-22 21:29:36
e193cecd-958f-4820-97d3-df215dea84b5,Brewery Silvaticus,brewpub,9 Water St,Amesbury,Massachusetts,01913-2936,United States,-70.9295559,42.8573815,9785042337,http://www.silvaticusbeers.com,Massachusetts,2026-02-22 21:29:36
6be8cb90-0919-46ce-af30-435d51aa06b8,Brewery Vivant,brewpub,925 Cherry St SE,Grand Rapids,Michigan,49506-1403,United States,-85.64683809,42.95961591,6167191604,http://www.breweryvivant.com,Michigan,2026-02-22 21:29:36
f5876665-7981-4cf5-8a2e-400d7a05c29a,Brewfinity Brewing Co,brewpub,N58 W39800 Industrial Rd Ste D,Oconomowoc,Wisconsin,53066,United States,-88.537410730917,43.126758239323,2624562843,https://www.brewfinitybrewing.com,Wisconsin,2026-02-22 21:29:36
da86ddee-bb17-4143-a02e-195afa438c12,Brewhaha JBay,brewpub,20 Da Gama Road,Jeffreys Bay,Eastern Cape,6330,South Africa,24.9258,-34.0514,27638844969,https://brewhahajbay.co.za/,Eastern Cape,2026-02-22 21:29:36
fe3c1834-e95f-4e16-bb58-56ffd676689c,Brewhouse & Kitchen,brewpub,East Street,Horsham,West Sussex,RH12 1HL,England,-0.327295,51.061642,2073543761,https://www.brewhouseandkitchen.com/,West Sussex,2026-02-22 21:29:36
639813cf-a5a1-4209-8a21-6bb8fc99589f,Brewing Brothers Ltd,brewpub,Queens Road,Hastings,East Sussex,TN34 1RL,England,0.584234,50.860013,7985505810,https://brewingbrothers.org/,East Sussex,2026-02-22 21:29:36
2c81530e-f7b2-4d1c-85ae-c351b12b11fc,Brewpop Brewery,brewpub,2122 US Highway 92 W,Auburndale,Florida,33823-3962,United States,,,8636623864,http://www.brewpop.com,Florida,2026-02-22 21:29:36
d67247b7-20ad-4f3a-aefb-b1f5097f6005,Brewport Brewing Co,brewpub,225 S Frontage Rd,Bridgeport,Connecticut,06604-5031,United States,-73.19238627,41.170877,2036124438,http://www.brewportct.com,Connecticut,2026-02-22 21:29:36
c8741305-1bbf-4318-a202-1f08584ff983,Brewpub Center Point,brewpub,2-5-8 Ukida,Osaka,Osaka,530-0021,Japan,135.5075634,34.70979002,81664508296,https://brewpub.co.jp/,Osaka,2026-02-22 21:29:36
3701ef02-81a2-4d59-99ae-8344dc8b530b,Brews Brothers,brewpub,2404 Strand St,Galveston,Texas,77550-1412,United States,,,4097632739,,Texas,2026-02-22 21:29:36
ab8115a1-d3ee-4d85-9914-ed54b78ed94f,Brewster River Pub & Brewery,brewpub,4087 Vt Route 108 S,Jeffersonville,Vermont,05464-9509,United States,,,8026446366,http://www.brewsterriverpubnbrewery.com,Vermont,2026-02-22 21:29:36
797d3752-6296-481b-882a-d12fe725f83f,Briar Common Brewery,brewpub,2298 N Clay St,Denver,Colorado,80211-5122,United States,,,7204703731,http://www.briarcommon.com,Colorado,2026-02-22 21:29:36
41bd989c-397a-4327-9d06-b6ebd0428261,Brick House Brewery and Restaurant,brewpub,67 W Main St,Patchogue,New York,11772-3001,United States,-73.01556054,40.7657941,6314472337,http://www.brickhousebrewery.com,New York,2026-02-22 21:29:36
5db17581-4733-49e0-ac36-d6df692948de,Brick Oven Pizza Co / Brick & Forge Brewing,brewpub,814 US-62,Harrison,Arkansas,72601,United States,,,8702364200,,Arkansas,2026-02-22 21:29:36
0bc7e210-353b-4a28-a801-58028431f2bc,Brick Oven Pizza Co / Brick & Forge Brewing,brewpub,2410 Linwood Dr,Paragould,Arkansas,72450-6122,United States,-90.52047972,36.03163581,8702364200,http://www.brickovenpizzacompany.com,Arkansas,2026-02-22 21:29:36
505fb24a-cf9f-4668-845c-6a7533b2f7a5,Brick Oven Pizza Co/ Brick & Forge Brewing,brewpub,4714 S 14th St,Abilene,Texas,79605-4733,United States,-99.78335777,32.42968055,8702364200,,Texas,2026-02-22 21:29:36
8652536e-e81b-446d-bd70-a7ed43b8898a,Brick Vault Brewery & BBQ,brewpub,102 NW 1st St Highway 90W,Marathon,Texas,79842,United States,,,4323864205,http://www.gagehotel.com,Texas,2026-02-22 21:29:36
f86a5689-c7fb-4cf8-9966-053f968d65f3,Brick Works Brewing and Eats,brewpub,230 S Dupont Blvd,Smyrna,Delaware,19977-1573,United States,-75.60080124,39.29825995,3025082523,http://www.brickworksde.com,Delaware,2026-02-22 21:29:36
c1923f43-b220-46ec-aa43-0a93cb4ebd07,Brickhouse Restaurant and Brewery,brewpub,241 Union Square,Milford,New Hampshire,03055,United States,,,6036722270,,New Hampshire,2026-02-22 21:29:36
2c0d7a26-0890-40f6-8f9e-7b3bb1975f68,BrickStone Brewery Brewpub,brewpub,557 William Latham Dr,Bourbonnais,Illinois,60914-2319,United States,-87.881654,41.162675,8159369277,http://www.brickstonebrewery.com,Illinois,2026-02-22 21:29:36
1d7e7d19-91e3-4752-9fb0-9454fad1aff8,Bricktown Brewery,brewpub,1 Remington Pl,Oklahoma City,Oklahoma,73111,United States,-97.471261,35.5277209,4054194449,http://www.bricktownbrewery.com,Oklahoma,2026-02-22 21:29:36
4468dae2-ef14-4570-af79-812226eaabd1,Bricktown Brewery,brewpub,1 N Oklahoma Ave,Oklahoma City,Oklahoma,73104-2413,United States,-97.510181,35.567702,4052322739,http://www.bricktownbrewery.com,Oklahoma,2026-02-22 21:29:36
433a8b85-87b2-4b73-87c9-c2c35570a544,Bricktowne Brewing Co,brewpub,111 E 8th St,Medford,Oregon,97501-7201,United States,-122.8721525,42.32544541,5419732377,http://www.bricktownebeer.com,Oregon,2026-02-22 21:29:36
e3b138f0-4abd-4e23-b04d-4aac36e1c63d,Brickyard Brewing Company,brewpub,436 Center St,Lewiston,New York,14092-1604,United States,-79.04306419,43.1729222,7167547227,http://www.brickyardbrewingcompany.com,New York,2026-02-22 21:29:36
c48a9522-9d3c-406d-8144-ff8a3b7c2078,Bridge Brewing Company - Lonsdale,brewpub,1211 Lonsdale Ave,North Vancouver,British Columbia,V7J 1H2,Canada,-123.0339211,49.3097411,16049901218,http://bridgebrewing.com/,British Columbia,2026-02-22 21:29:36
e87a6521-a7ae-4c97-8971-bce66c2465a2,Bridge Brewing Company - Pemberton,brewpub,1123 West 15th Street,North Vancouver,British Columbia,V7P 1M7,Canada,-123.1314885,49.319213,16049730606,http://bridgebrewing.com/,British Columbia,2026-02-22 21:29:36
b3b5f9f6-ffbf-484f-add2-3ee88b6f8de2,Bridge Street Brewery,brewpub,1 Bridge Street,Gqeberha,Eastern Cape,6001,South Africa,25.6212,-33.9694,27415810361,https://bridgestreet.co.za/,Eastern Cape,2026-02-22 21:29:36
9396e1c1-49d3-4169-8f7c-c8cb5d53af3a,Bridger Brewing Company,brewpub,1609 S 11th Ave,Bozeman,Montana,59715-5466,United States,-111.0526959,45.6627215,4065872124,http://www.bridgerbrewing.com,Montana,2026-02-22 21:29:36
befb66c9-be92-4e98-be8c-f201b38c775c,Brim Kitchen and Brewery,brewpub,3941 Erie St,Willoughby,Ohio,44094-7704,United States,-81.40637701,41.64346969,4402068183,http://www.brimbrewery.com,Ohio,2026-02-22 21:29:36
ef36c636-3602-4b9f-a1ef-a3552582c2fd,Britannia Brewing Company - Ladner Village,brewpub,4821 Delta St,Delta,British Columbia,V4K 2T7,Canada,-123.0881992,49.0905781,16049401900,http://www.britanniasteveston.ca/,British Columbia,2026-02-22 21:29:36
e2aeb2b2-4225-4114-884d-a24b17e8a387,Britannia Brewing Company - Steveston Vollage,brewpub,Unit 250 - 12240 2nd Avenue,Richmond,British Columbia,V7E 3L8,Canada,-125.6229041,49.1242403,16042709252,http://www.britanniasteveston.ca/,British Columbia,2026-02-22 21:29:36
0b3fde08-24cd-4523-b824-cf558568a608,Brite Eyes Brewing Co,brewpub,1156 S Burdick St,Kalamazoo,Michigan,49001-2741,United States,-85.582846,42.27977268,2692205001,,Michigan,2026-02-22 21:29:36
01dc9824-efc8-4ee4-a90a-a67d11bec14d,Brixton Brewing,brewpub,165 Brighton Ave,Rochester,Pennsylvania,15074-2203,United States,-80.2828549,40.70091875,7247282227,http://www.brixtonbrewing.com,Pennsylvania,2026-02-22 21:29:36
0a1f49af-8c69-4316-bb3d-1042c42b3d03,Broad Ripple Brewing Co,brewpub,842 E 65th St,Indianapolis,Indiana,46220-1674,United States,,,3172532739,,Indiana,2026-02-22 21:29:36
5d8946d2-ed0c-404b-9ae9-3e8626089ca8,Broadway Brewery,brewpub,816 E Broadway Ste B,Columbia,Missouri,65201-4898,United States,-92.327968,38.951342,5734435054,http://www.broadwaybrewery.com,Missouri,2026-02-22 21:29:36
9852df06-5377-40b5-9ba1-e008bfa15d70,Broken Goblet Brewing,brewpub,1500 Grundy Ln Bldg 1,Bristol,Pennsylvania,19007-1521,United States,,,2678125653,http://www.brokengoblet.com,Pennsylvania,2026-02-22 21:29:36
cadced11-9b86-49ba-a329-f8dcdd51426f,Broken Rock Brewery,brewpub,282 Grindstone Rd Bird Creek Farms,Port Austin,Michigan,48467-9390,United States,,,2487033114,http://birdcreekfarms.com,Michigan,2026-02-22 21:29:36
e6c27ded-48b1-4290-b7a2-3deda657a7b8,Broken Symmetry Gastro Brewery,brewpub,5 Depot Pl,Bethel,Connecticut,06801-2507,United States,-73.41424776,41.37097334,2037311735,,Connecticut,2026-02-22 21:29:36
e9d8d2f1-c53c-46f6-8195-3799d6c3e818,Broken Tooth Brewing Co,brewpub,2021 Spar Ave,Anchorage,Alaska,99501-1815,United States,-149.8437638,61.2225517,9072784999,https://brokentoothbrewing.net,Alaska,2026-02-22 21:29:36
cab32ebd-9d23-425f-ad99-fc0959be6858,Broken Wheel Brewery,brewpub,109 Tunica Dr E,Marksville,Louisiana,71351-3005,United States,-92.06931518,31.12386287,3182536543,,Louisiana,2026-02-22 21:29:36
68b69497-3a9f-49b3-a523-26bd686d4be2,Bronze Owl Brewing,brewpub,506 Vine St,Poplar Bluff,Missouri,63901-7331,United States,-90.39577338,36.75663108,5738405202,http://www.bronzeowlbrewing.com,Missouri,2026-02-22 21:29:36
67840cfb-5c46-4a2b-912c-49165bc73d88,Brouwerij Cursus Keme,brewpub,155 Thompson St,Asheville,North Carolina,28803-1443,United States,-82.52572837,35.57438843,,,North Carolina,2026-02-22 21:29:36
6bb73725-a04f-4453-bfb4-103c88d1dcac,Browar Caminus,brewpub,1 Maja 11,Kąty Wrocławskie,dolnośląskie,55-080,Poland,16.7665208,51.0308894,,,dolnośląskie,2026-02-22 21:29:36
acaf83f9-7aaf-48db-baa7-f1a2c13926c2,Browar Mariental,brewpub,1 Maja 11,Szklarska Poręba,dolnośląskie,58-580,Poland,15.5249165,50.8259305,,,dolnośląskie,2026-02-22 21:29:36
e163f605-c2e2-45cf-b684-77f60dde6c9f,Browar Restauracyjny Prost,brewpub,Paprotna 4,Wrocław,dolnośląskie,51-117,Poland,17.0228782,51.1507632,,,dolnośląskie,2026-02-22 21:29:36
12738d11-80b2-41af-b991-fd5fed99f3d3,Browar Sowiduch,brewpub,Konstytucji 3 Maja 45A,Karpacz,dolnośląskie,58-540,Poland,15.7558721,50.7751604,,,dolnośląskie,2026-02-22 21:29:36
5137aaa8-be5a-40b1-95b1-2f3e0e0770e9,Browar Złoty Pies,brewpub,Wita Stwosza 1-2,Wrocław,dolnośląskie,51-116,Poland,17.0336486,51.110441,,,dolnośląskie,2026-02-22 21:29:36
b09140d2-fce4-4996-86ea-2c0aafc6682d,Brown Iron Brewhouse,brewpub,57695 Van Dyke Rd,Washington,Michigan,48094-2879,United States,-83.03578521,42.71929931,586697330,http://www.browniron.com,Michigan,2026-02-22 21:29:36
0353cf46-744c-4538-81c4-febe1d8a0be7,Brown's Brewing Co,brewpub,50 Factory Hill Rd,North Hoosick,New York,12133,United States,-73.34515821,42.92661444,5182732337,http://www.brownsbrewing.com,New York,2026-02-22 21:29:36
cac29608-c079-4fd2-b3c6-c13b8ac693eb,Brown's Brewing Co,brewpub,417 River St,Troy,New York,12180-2822,United States,-73.68755002,42.73567746,5183654846,http://www.brownsbrewing.com,New York,2026-02-22 21:29:36
48a7cc57-7544-472d-bc89-2e12ab8e6d53,BRU Handbuilt Ales and Eats,brewpub,5290 Arapahoe Ave,Boulder,Colorado,80303-1269,United States,-105.2293345,40.0141462,7206385193,http://www.bruboulder.com,Colorado,2026-02-22 21:29:36
5ad3e5b9-e203-40eb-bc84-6e28356993d6,Brues Alehouse Brewing Company,brewpub,120 Riverwalk Place,Pueblo,Colorado,81003,United States,,,7199249670,http://www.bruesalehouse.com,Colorado,2026-02-22 21:29:36
8029560b-c49b-4979-a971-461bfac424f6,Brugge Brasserie,brewpub,1011A E Westfield Blvd,Indianapolis,Indiana,46220-,United States,,,3172550978,http://www.bruggebrasserie.com,Indiana,2026-02-22 21:29:36
131050bc-6ba0-4eab-a7ba-7cb42becdbeb,BruRm At Bar,brewpub,254 Crown St,New Haven,Connecticut,06511-6610,United States,-72.9302577,41.3061639,2034958924,http://www.barnightclub.com,Connecticut,2026-02-22 21:29:36
5349a160-b8e9-4447-bb32-947718daf82f,Brush Creek Brewing Company,brewpub,102 N Main St,Atkinson,Nebraska,68713-4946,United States,-98.97836727,42.53141502,4029252629,https://www.brushcreekbrewingcompany.com,Nebraska,2026-02-22 21:29:36
1b93afb3-f335-4c76-b247-16021324c687,Brutopia Brewery and Kitchen,brewpub,505 Atwood Ave,Cranston,Rhode Island,02920-5327,United States,-71.47169613,41.78983825,4014648877,http://www.brutopiabrewery.com,Rhode Island,2026-02-22 21:29:36
a75a8cd7-7531-4df5-8edb-48782916a3da,Bubes Brewery,brewpub,102 N Market St,Mount Joy,Pennsylvania,17552-1306,United States,-76.50290152,40.11180762,7176532056,http://www.bubesbrewery.com,Pennsylvania,2026-02-22 21:29:36
6ba05499-27cc-40c8-9fc6-003190f93adb,Buck Hill Brewery and Restaurant,brewpub,45 Route 94,Blairstown,New Jersey,07825,United States,,,9088545300,http://www.buckhillbrewery.com,New Jersey,2026-02-22 21:29:36
c2cb20bd-eb6d-40af-afef-44896bb4e3d8,Buckeye Beer Engine,brewpub,15315 Madison Ave,Lakewood,Ohio,44107-4020,United States,-81.803918,41.477245,2162262337,http://www.buckeyebeerengine.com,Ohio,2026-02-22 21:29:36
245f05e1-8216-45f4-9a5d-d8f6f600719a,Buckwheat Brewing,brewpub,148 E Main St,Dayton,Washington,99328-1351,United States,-117.9811345,46.3192285,5093824677,https://buckwheatbrewing.com,Washington,2026-02-22 21:29:36
d0d1897a-d4d4-46e1-9f35-5c21cf0b49a5,Buffalo Bills Brewery,brewpub,1082 B St,Hayward,California,94541-4108,United States,-122.0768666,37.6770284,5108869823,http://www.buffalobillsbrewery.com,California,2026-02-22 21:29:36
b52360f6-016f-453a-b9e1-67c5d0ca9b60,Buffalo Brewpub,brewpub,6861 Main St,Buffalo,New York,14221-5929,United States,-78.831057,42.946564,7166320552,http://www.buffalobrewpub.com,New York,2026-02-22 21:29:36
